OBJECTID,Owner,Path,Source,Type,HIFLD_ID,Name,Max_Voltage,ZIP_CODE,STATE,COUNTY,CITY,Lon,Lat
1,Other,,CEC,SUBSTATION,310025,Jenney,115,94501,CA,Alameda County,Alameda,-122.2429162,37.77243572
2,PG&E,,CEC,SUBSTATION,306474,Corona,115,94954,CA,Sonoma County,Petaluma,-122.6573685,38.2650127
3,PG&E,,CEC,SUBSTATION,310124,South Bay 1,,94514,CA,Alameda County,Unincorporated,-121.6259513,37.77848161
4,PG&E,,CEC,SUBSTATION,306256,Altamont,60,94551,CA,Alameda County,Unincorporated,-121.6772083,37.7483765
5,PG&E,,CEC,SUBSTATION,303892,Castro Valley,230,94546,CA,Alameda County,Unincorporated,-122.0612774,37.69128098
6,PG&E,,CEC,SUBSTATION,303608,Claremont,115,94618,CA,Alameda County,Oakland,-122.2285851,37.84737346
7,Other,,CEC,SUBSTATION,303469,Cryogenics,115,94587,CA,Alameda County,Union City,-122.0174353,37.59578193
8,PG&E,,CEC,SUBSTATION,307419,Kekawaka,60,95595,CA,Trinity County,Unincorporated,-123.5091868,40.09403073
9,PG&E,,CEC,SUBSTATION,307780,Dumbarton,115,94555,CA,Alameda County,Fremont,-122.05794,37.55699202
10,PG&E,East Bay,CEC,SUBSTATION,301389,Eastshore,230,94545,CA,Alameda County,Hayward,-122.1166112,37.62507859
11,PG&E,,CEC,SUBSTATION,303133,Edes,115,94603,CA,Alameda County,Oakland,-122.1937991,37.73868954
12,PG&E,,CEC,SUBSTATION,302108,Fremont,115,94538,CA,Alameda County,Fremont,-121.9619574,37.54136311
13,Other,,CEC,SUBSTATION,305808,Nummi,115,94538,CA,Alameda County,Fremont,-121.9394285,37.49369132
14,PG&E,,CEC,SUBSTATION,303596,Grant,115,94579,CA,Alameda County,San Leandro,-122.1595387,37.67126804
15,Other,,CEC,SUBSTATION,305871,Grizzly,115,94720,CA,Alameda County,Oakland,-122.245764,37.876174
16,PG&E,,CEC,SUBSTATION,308301,Luka,60,94566,CA,Alameda County,Unincorporated,-121.8318768,37.66794608
17,PG&E,,CEC,,306175,Air Liquide,115,94587,CA,Alameda County,Union City,-122.0174914,37.59531056
18,Other,,CEC,SUBSTATION,303791,Kaiser,,94568,CA,Alameda County,Dublin,-121.9070045,37.70853376
19,PG&E,,CEC,SUBSTATION,301848,Las Positas,230,94551,CA,Alameda County,Livermore,-121.7332445,37.70082423
20,PG&E,,CEC,SUBSTATION,307237,Livermore,60,94551,CA,Alameda County,Livermore,-121.7805048,37.68002781
21,PG&E,East Bay,CEC,SUBSTATION,305785,Mt. Eden,,94545,CA,Alameda County,Hayward,-122.1018481,37.63206011
22,PG&E,,CEC,SUBSTATION,306611,Newark,230,94538,CA,Alameda County,Fremont,-121.9862624,37.50087312
23,PG&E,,CEC,SUBSTATION,305695,Parks,,94568,CA,Alameda County,Dublin,-121.8938504,37.71164362
24,PG&E,,CEC,SUBSTATION,300539,Radum,60,94566,CA,Alameda County,Pleasanton,-121.859528,37.67255501
25,PG&E,,CEC,SUBSTATION,302831,Ralph,,94514,CA,Alameda County,Unincorporated,-121.6199438,37.79905699
26,PG&E,,CEC,SUBSTATION,308197,Ravenswood,230,94025,CA,San Mateo County,Menlo Park,-122.1379462,37.49296812
27,PG&E,,CEC,SUBSTATION,304946,San Leandro U,115,94578,CA,Alameda County,San Leandro,-122.1481883,37.71062477
28,PG&E,,CEC,SUBSTATION,306989,Oakland J,115,94621,CA,Alameda County,Oakland,-122.2144948,37.76299826
29,PG&E,,CEC,SUBSTATION,306148,Sunol,,94586,CA,Alameda County,Unincorporated,-121.869684,37.58690266
30,PG&E,15X,CEC,SUBSTATION,305530,Tesla,500,95377,CA,Alameda County,Unincorporated,-121.5648579,37.71239639
31,PG&E,,CEC,SUBSTATION,300606,Vallecitos,,94586,CA,Alameda County,Unincorporated,-121.842671,37.60924399
32,PG&E,,CEC,SUBSTATION,306744,Vasco,60,94551,CA,Alameda County,Livermore,-121.7158749,37.71111924
33,PG&E,,CEC,SUBSTATION,306816,Vineyard,,94566,CA,Alameda County,Pleasanton,-121.8544376,37.66968929
34,PG&E,,CEC,SUBSTATION,306187,Amfor,60,95685,CA,Amador County,Unincorporated,-120.822098,38.408767
35,PG&E,,CEC,SUBSTATION,300035,Clay,60,95640,CA,Amador County,Ione,-120.9349804,38.34219061
36,Other,,CEC,SUBSTATION,300305,Ione,60,95640,CA,Amador County,Unincorporated,-120.9575497,38.37390104
37,PG&E,,CEC,SUBSTATION,303132,Ione Energy,,95640,CA,Amador County,Unincorporated,-120.9138995,38.27717343
38,PG&E,,CEC,SUBSTATION,306434,Martell,60,95642,CA,Amador County,Unincorporated,-120.796754,38.36910799
39,Other,,CEC,SUBSTATION,300400,Nepco,,95685,CA,Amador County,Unincorporated,-120.8054803,38.36863575
40,PG&E,,CEC,SUBSTATION,304637,Oleta,60,95669,CA,Amador County,Plymouth,-120.8449436,38.48076425
41,PG&E,H11,CEC,SUBSTATION,306859,Salt Springs,115,95666,CA,Amador County,Unincorporated,-120.2184202,38.4984199
42,PG&E,,CEC,SUBSTATION,306215,Pine Grove,60,95665,CA,Amador County,Unincorporated,-120.6602339,38.4127977
43,PG&E,,CEC,SUBSTATION,307115,Lammers,115,95377,CA,San Joaquin County,Unincorporated,-121.4775277,37.71296547
44,PG&E,,CEC,SUBSTATION,302814,A.P.T. Oro,,95965,CA,Butte County,Oroville,-121.5654854,39.48122633
45,Other,,CEC,SUBSTATION,301839,Gridley,60,95948,CA,Butte County,Gridley,-121.6856152,39.36471316
46,Other,,CEC,SUBSTATION,305907,Louisiana Pacific (Oroville),,95965,CA,Butte County,Unincorporated,-121.5747818,39.47437782
47,Other,,CEC,,,City Of Biggs,,95917,CA,Butte County,Unincorporated,-121.6886266,39.4087526
48,PG&E,,CEC,SUBSTATION,303296,Cabrillo,115,93436,CA,Santa Barbara County,Lompoc,-120.4372802,34.64326979
49,Other,,CEC,SUBSTATION,307094,Anita,60,95973,CA,Butte County,Unincorporated,-121.9196266,39.81095374
50,PG&E,,CEC,SUBSTATION,302304,Bangor,,95914,CA,Butte County,Unincorporated,-121.4031757,39.38767374
51,PG&E,H10,CEC,SUBSTATION,303665,Big Bend,115,95965,CA,Butte County,Unincorporated,-121.4915179,39.67735464
52,PG&E,,CEC,SUBSTATION,303732,Butte,115,95928,CA,Butte County,Chico,-121.8133571,39.71220645
53,PG&E,,CEC,SUBSTATION,304029,Chico A,,95928,CA,Butte County,Chico,-121.8209206,39.71884016
54,PG&E,,CEC,SUBSTATION,308381,Chico B,115,95928,CA,Butte County,Chico,-121.8470758,39.72551493
55,IID,,CEC,SUBSTATION,301865,Ramon,,92276,CA,Riverside County,Unincorporated,-116.3674057,33.81774602
56,PG&E,,CEC,SUBSTATION,300607,Esquon,115,95938,CA,Butte County,Unincorporated,-121.7683336,39.60773551
57,PG&E,,CEC,SUBSTATION,303483,Hamilton A,,95951,CA,Glenn County,Unincorporated,-122.0113693,39.74641854
58,PG&E,,CEC,SUBSTATION,310438,Honcut,115,95965,CA,Butte County,Unincorporated,-121.5953277,39.32058027
59,Other,,CEC,SUBSTATION,306312,Kanaka,115,95966,CA,Butte County,Unincorporated,-121.3055783,39.57518648
60,PG&E,,CEC,SUBSTATION,305811,Nord,115,95973,CA,Butte County,Unincorporated,-121.9070486,39.7602408
61,PG&E,,CEC,SUBSTATION,300584,Oro Fino,,95954,CA,Butte County,Unincorporated,-121.6107851,39.87156253
62,PG&E,,CEC,SUBSTATION,300266,Oroville,60,95965,CA,Butte County,Oroville,-121.560155,39.50399795
63,PG&E,,CEC,SUBSTATION,307680,Palermo,230,95966,CA,Butte County,Unincorporated,-121.5176615,39.45434305
64,PG&E,,CEC,SUBSTATION,309157,Paradise,,95969,CA,Butte County,Paradise,-121.6187304,39.76066295
65,PG&E,,CEC,SUBSTATION,301112,Peachton,,95948,CA,Butte County,Unincorporated,-121.6850945,39.37824172
66,PG&E,,CEC,SUBSTATION,303844,Sycamore Creek,115,95973,CA,Butte County,Chico,-121.8240284,39.76876106
67,PG&E,66,CEC,SUBSTATION,300007,Table Mt.,,95965,CA,Butte County,Unincorporated,-121.6447874,39.55528056
68,PG&E,,CEC,SUBSTATION,304191,Tres Vias,115,95965,CA,Butte County,Unincorporated,-121.6880242,39.48676454
69,PG&E,,CEC,SUBSTATION,302198,Wyandotte,115,95966,CA,Butte County,Unincorporated,-121.5409467,39.49170026
70,Other,,CEC,SUBSTATION,308779,Calaveras Cement,60,95249,CA,Calaveras County,Unincorporated,-120.6672277,38.16989692
71,Other,,CEC,SUBSTATION,307549,Cataract,,95310,CA,Tuolumne County,Unincorporated,-120.4221335,38.06981688
72,PG&E,,CEC,SUBSTATION,300455,Corral,60,95236,CA,Calaveras County,Unincorporated,-120.9261759,38.10148065
73,PG&E,,CEC,SUBSTATION,305719,Frogtown,,95222,CA,Calaveras County,Unincorporated,-120.5339711,38.0571528
74,WAPA,H2,CEC,SUBSTATION,304398,Melones,230,95222,CA,Calaveras County,Unincorporated,-120.5362212,37.9446466
75,PG&E,,CEC,SUBSTATION,308813,Murphy,115,95247,CA,Calaveras County,Unincorporated,-120.4464194,38.14698707
76,PG&E,,CEC,SUBSTATION,307819,North Branch,60,95249,CA,Calaveras County,Unincorporated,-120.719348,38.19974699
77,PG&E,,CEC,SUBSTATION,303253,Valley Springs,,95252,CA,Calaveras County,Unincorporated,-120.7640105,38.21658506
78,PG&E,,CEC,SUBSTATION,303681,Arbuckle,60,95912,CA,Colusa County,Unincorporated,-122.0613948,39.01747968
79,PG&E,,CEC,SUBSTATION,306707,Colusa,60,95932,CA,Colusa County,Colusa,-122.0025503,39.21353467
80,PG&E,66X,CEC,SUBSTATION,300004,Cortina,,95987,CA,Colusa County,Unincorporated,-122.2233349,39.12054474
81,PG&E,,CEC,SUBSTATION,302981,Drake,60,95912,CA,Colusa County,Unincorporated,-122.0433322,38.96982277
82,PG&E,,CEC,SUBSTATION,307397,Harrington,60,95912,CA,Colusa County,Unincorporated,-122.0704684,38.96922396
83,PG&E,,CEC,SUBSTATION,306085,Maxwell,60,95955,CA,Colusa County,Unincorporated,-122.1532889,39.27695996
84,PG&E,,CEC,SUBSTATION,304472,Rice,60,95970,CA,Colusa County,Unincorporated,-122.0132647,39.40274718
85,PG&E,,CEC,SUBSTATION,301442,Williams,60,95987,CA,Colusa County,Williams,-122.1477121,39.15748765
86,SCE,,CEC,SUBSTATION,303308,Etiwanda,,91739,CA,San Bernardino County,Rancho Cucamonga,-117.5270464,34.08917006
87,SCE,,CEC,SUBSTATION,307039,Stadium,,90803,CA,Los Angeles County,Long Beach,-118.1002474,33.77133255
88,PG&E,,CEC,SUBSTATION,309944,Alhambra,115,94553,CA,Contra Costa County,Martinez,-122.1301156,37.99392322
89,PG&E,,CEC,SUBSTATION,308431,Byron Bethany,60,94514,CA,Contra Costa County,Unincorporated,-121.5871457,37.81698936
90,Other,,CEC,SUBSTATION,303848,Du Pont,60,94561,CA,Contra Costa County,Oakley,-121.748771,38.01132999
91,Other,,CEC,SUBSTATION,301537,Los Vaqueros,,94505,CA,Contra Costa County,Unincorporated,-121.5769277,37.88699377
92,Other,,CEC,SUBSTATION,307155,GWF 3,230,94509,CA,Contra Costa County,Antioch,-121.7811308,38.01183098
93,PG&E,,CEC,SUBSTATION,302041,GWF 4,60,94509,CA,Contra Costa County,Antioch,-121.7562696,38.01049965
94,PG&E,,CEC,,,Linde,,94565,CA,Contra Costa County,Pittsburg,-121.8496279,38.02639867
95,Other,,CEC,SUBSTATION,303191,Shell Oil 1,115,94553,CA,Contra Costa County,Unincorporated,-122.1158065,38.01420008
96,Other,,CEC,SUBSTATION,305575,Union Chemical,60,94572,CA,Contra Costa County,Unincorporated,-122.2354177,38.01900393
97,Other,,CEC,SUBSTATION,302976,Walnut Creek Pp,,94597,CA,Contra Costa County,Walnut Creek,-122.0713843,37.92595616
98,Other,,CEC,,,Tres Vaqueros Wind Farm (Jv Ent),,94514,CA,Contra Costa County,Unincorporated,-121.6229064,37.83870261
99,PG&E,,CEC,SUBSTATION,308996,Balfour,60,94513,CA,Contra Costa County,Brentwood,-121.678276,37.92583801
100,Other,,CEC,SUBSTATION,308223,Bollman,115,94520,CA,Contra Costa County,Unincorporated,-122.0426788,38.0125913
101,PG&E,,CEC,SUBSTATION,305606,Brentwood,,94513,CA,Contra Costa County,Unincorporated,-121.6767632,37.91905743
102,Other,,CEC,SUBSTATION,300121,Briones,60,94517,CA,Contra Costa County,Unincorporated,-121.8144465,37.88525172
103,PG&E,,CEC,SUBSTATION,300153,Christie,115,94553,CA,Contra Costa County,Unincorporated,-122.208368,38.00286202
104,PG&E,,CEC,SUBSTATION,303412,Clayton,115,94521,CA,Contra Costa County,Concord,-121.9691071,37.94410025
105,Other,,CEC,SUBSTATION,307092,Columbia Steel,115,94565,CA,Contra Costa County,Pittsburg,-121.8633112,38.02598429
106,PG&E,,CEC,SUBSTATION,305643,Antioch,60,94509,CA,Contra Costa County,Antioch,-121.815552,38.01351802
107,PG&E,,CEC,SUBSTATION,304763,Contra Costa,230,94509,CA,Contra Costa County,Antioch,-121.7828231,37.99955468
108,Other,,CEC,SUBSTATION,306032,Dow Chemical,,94565,CA,Contra Costa County,Pittsburg,-121.8543797,38.02728725
109,PG&E,,CEC,SUBSTATION,301921,East Portal,115,94563,CA,Contra Costa County,Orinda,-122.1870459,37.8759552
110,PG&E,,CEC,SUBSTATION,304175,El Cerrito Station G,115,94530,CA,Contra Costa County,El Cerrito,-122.3022222,37.91625224
111,PG&E,,CEC,SUBSTATION,304242,Fibreboard,115,94509,CA,Contra Costa County,Antioch,-121.7739186,38.01599634
112,PG&E,,CEC,SUBSTATION,306689,Franklin,60,94547,CA,Contra Costa County,Hercules,-122.26433,38.012107
113,PG&E,,CEC,SUBSTATION,303302,Herdlyn,60,94514,CA,Contra Costa County,Unincorporated,-121.5861654,37.81672046
114,PG&E,,CEC,SUBSTATION,303584,Imhoff,115,94553,CA,Contra Costa County,Unincorporated,-122.0672557,38.00163657
115,PG&E,East Bay,CEC,SUBSTATION,309545,Kirker,115,94565,CA,Contra Costa County,Pittsburg,-121.905955,38.02078899
116,PG&E,,CEC,SUBSTATION,305570,Lakewood,115,94597,CA,Contra Costa County,Walnut Creek,-122.0573349,37.90841013
117,PG&E,,CEC,SUBSTATION,303575,Marsh,60,94513,CA,Contra Costa County,Brentwood,-121.7226957,37.90286541
118,PG&E,,CEC,SUBSTATION,307646,Meadow Lane,115,94520,CA,Contra Costa County,Concord,-122.0522531,37.96324326
119,PG&E,East Bay,CEC,SUBSTATION,301876,Moraga,230,94563,CA,Contra Costa County,Orinda,-122.1608319,37.84776393
120,PG&E,East Bay,CEC,SUBSTATION,306987,Pittsburg,230,94565,CA,Contra Costa County,Pittsburg,-121.896796,38.036822
121,PG&E,,CEC,SUBSTATION,302095,Point Pinole,115,94806,CA,Contra Costa County,Richmond,-122.3481031,37.99592158
122,Other,,CEC,SUBSTATION,303251,Port Costa Brick,60,94569,CA,Contra Costa County,Unincorporated,-122.178096,38.03732601
123,Other,,CEC,SUBSTATION,301740,Posco,,94565,CA,Contra Costa County,Pittsburg,-121.8669588,38.02595566
124,PG&E,,CEC,SUBSTATION,309537,Rossmoor,230,94549,CA,Contra Costa County,Walnut Creek,-122.0803233,37.86465422
125,PG&E,,CEC,,,San Ramon Research Cntr.,230,94583,CA,Contra Costa County,Danville,-121.9676624,37.78241596
126,PG&E,,CEC,SUBSTATION,307126,San Pablo,,94806,CA,Contra Costa County,Richmond,-122.3368253,37.98529641
127,PG&E,East Bay,CEC,SUBSTATION,309611,San Ramon,230,94583,CA,Contra Costa County,San Ramon,-121.9359098,37.74472575
128,PG&E,,CEC,SUBSTATION,307001,Sobrante,230,94563,CA,Contra Costa County,Orinda,-122.2080951,37.90545805
129,PG&E,,CEC,SUBSTATION,309979,Narrows,60,95977,CA,Nevada County,Unincorporated,-121.2686315,39.23512867
130,PG&E,,CEC,SUBSTATION,309103,Tidewater,230,94553,CA,Contra Costa County,Unincorporated,-122.061857,38.0196442
131,PG&E,,CEC,SUBSTATION,308410,Unocal,,94525,CA,Contra Costa County,Unincorporated,-122.2345322,38.05340781
132,PG&E,,CEC,SUBSTATION,308825,Urich,60,94553,CA,Contra Costa County,Martinez,-122.103101,38.028955
133,PG&E,,CEC,SUBSTATION,301579,Valley View,115,94803,CA,Contra Costa County,Unincorporated,-122.2786242,37.96613398
134,PG&E,,CEC,SUBSTATION,300160,Willow Pass,115,94565,CA,Contra Costa County,Unincorporated,-121.9609733,38.02477032
135,PCORP,,CEC,SUBSTATION,203296,Belmont,69,95531,CA,Del Norte County,Unincorporated,-124.2078921,41.77306065
136,PCORP,,CEC,SUBSTATION,203292,Del Norte,115,95531,CA,Del Norte County,Unincorporated,-124.1390726,41.86766181
137,PCORP,,CEC,SUBSTATION,203293,Gasquet,115,95543,CA,Del Norte County,Unincorporated,-123.9667513,41.84825595
138,PCORP,,CEC,SUBSTATION,203291,Lake Earl,,95531,CA,Del Norte County,Crescent City,-124.1479862,41.85179685
139,PCORP,,CEC,SUBSTATION,203301,Miller Redwood,69,95548,CA,Del Norte County,Unincorporated,-124.0974249,41.73290031
140,PCORP,,CEC,SUBSTATION,203298,Northcrest,69,95531,CA,Del Norte County,Crescent City,-124.1991805,41.76606163
141,PCORP,,CEC,SUBSTATION,203306,Patrick'S Creek,115,95543,CA,Del Norte County,Unincorporated,-123.8646665,41.88140087
142,PCORP,,CEC,SUBSTATION,203295,Redwood,69,95531,CA,Del Norte County,Unincorporated,-124.1634726,41.76081304
143,PCORP,,CEC,SUBSTATION,203290,Simonson,,95567,CA,Del Norte County,Unincorporated,-124.1394239,41.92514595
144,PCORP,,CEC,SUBSTATION,203303,Smith River,,95567,CA,Del Norte County,Unincorporated,-124.1405754,41.88541567
145,PCORP,,CEC,SUBSTATION,203314,Steelhead,69,95568,CA,Siskiyou County,Unincorporated,-123.0350791,41.77442883
146,PCORP,,CEC,SUBSTATION,202983,Yurok,69,95548,CA,Del Norte County,Unincorporated,-124.0504349,41.54336778
147,Other,,CEC,SUBSTATION,309884,Meyers,,96150,CA,El Dorado County,Unincorporated,-119.9858527,38.87724089
148,Other,,CEC,,,Stateline,,96150,CA,El Dorado County,South Lake Tahoe,-119.9432533,38.93184131
149,PG&E,,CEC,,,Apple Hill,,95709,CA,El Dorado County,Unincorporated,-120.6771651,38.73968297
150,SCE,,CEC,SUBSTATION,302035,San Bernardino,,92408,CA,San Bernardino County,Redlands,-117.2386538,34.07960733
151,PG&E,,CEC,SUBSTATION,302248,Diamond Springs,115,95667,CA,El Dorado County,Unincorporated,-120.8258948,38.69341229
152,PG&E,SMUD,CEC,,,El Dorado,230,95726,CA,El Dorado County,Unincorporated,-120.6219215,38.79560543
153,PG&E,,CEC,SUBSTATION,303272,Flint,,95603,CA,Placer County,Auburn,-121.0671416,38.88492041
154,PG&E,,CEC,SUBSTATION,310069,Limestone,,95682,CA,El Dorado County,Unincorporated,-120.9801828,38.6349329
155,PG&E,,CEC,SUBSTATION,303981,Mt. Quarries,60,95614,CA,El Dorado County,Unincorporated,-121.0189822,38.91406597
156,PG&E,,CEC,SUBSTATION,306130,Newcastle,115,95658,CA,Placer County,Unincorporated,-121.094821,38.83485899
157,PG&E,,CEC,SUBSTATION,304255,Placerville,115,95667,CA,El Dorado County,Placerville,-120.7838386,38.73089864
158,PG&E,,CEC,SUBSTATION,306505,Shingle Springs,,95682,CA,El Dorado County,Unincorporated,-120.9472381,38.65929769
159,PG&E,,CEC,SUBSTATION,303839,Clarksville,,95762,CA,El Dorado County,Unincorporated,-121.0595437,38.65571788
160,Other,,CEC,SUBSTATION,304454,Blythe Walc,161,92225,CA,Riverside County,Blythe,-114.6804774,33.61125837
161,SMUD,,CEC,SUBSTATION,307578,Jones Fork,,51,CA,El Dorado County,Unincorporated,-120.3819544,38.85028861
162,PG&E,SMUD,CEC,SUBSTATION,308707,Camino,,95726,CA,El Dorado County,Unincorporated,-120.619311,38.79337762
163,SMUD,SMUD,CEC,SUBSTATION,300800,Union Valley,230,51,CA,El Dorado County,Unincorporated,-120.4428515,38.86343203
164,Other,,CEC,SUBSTATION,309725,Guardian and Eastbank,115,93631,CA,Fresno County,Kingsburg,-119.5818423,36.54076139
165,Other,,CEC,SUBSTATION,308967,Las Palmas,115,93727,CA,Fresno County,Unincorporated,-119.6968545,36.75773233
166,Other,,CEC,SUBSTATION,300523,Mussel Slough,60,93245,CA,Kings County,Unincorporated,-119.9470597,36.31946224
167,Other,,CEC,,,Cal Resources LLC,60,93210,CA,Fresno County,Unincorporated,-120.3687036,36.23774299
168,PG&E,15,CEC,SUBSTATION,306180,Oxford,500,93640,CA,Fresno County,Unincorporated,-120.7018288,36.71509335
169,Other,,CEC,SUBSTATION,310397,Penn Zier,60,93210,CA,Fresno County,Unincorporated,-120.3814639,36.22456945
170,PG&E,,CEC,SUBSTATION,304977,Ranchers Cotton,115,93725,CA,Fresno County,Unincorporated,-119.754489,36.70056751
171,PG&E,,CEC,SUBSTATION,304800,River Rock,60,93730,CA,Fresno County,Unincorporated,-119.773843,36.90286001
172,Other,,CEC,SUBSTATION,303884,Tornado,60,93210,CA,Fresno County,Unincorporated,-120.3552717,36.19229514
173,PG&E,,CEC,SUBSTATION,302217,Westlands,60,93668,CA,Fresno County,Unincorporated,-120.3423122,36.63241754
174,Other,,CEC,SUBSTATION,310526,Kamm,,93640,CA,Fresno County,Unincorporated,-120.4852632,36.52807464
175,Other,,CEC,SUBSTATION,302267,Agrico,60,93630,CA,Fresno County,Unincorporated,-120.0998217,36.6176958
176,PG&E,,CEC,SUBSTATION,304283,Barton,115,93727,CA,Fresno County,Fresno,-119.7349108,36.76424276
177,PG&E,,CEC,SUBSTATION,303612,Biola,70,93630,CA,Fresno County,Unincorporated,-120.1141466,36.79273987
178,PG&E,,CEC,SUBSTATION,305986,Bullard,115,93710,CA,Fresno County,Fresno,-119.7684759,36.82387712
179,Other,,CEC,SUBSTATION,306230,Calflax,60,93234,CA,Fresno County,Unincorporated,-120.122075,36.28400837
180,PG&E,,CEC,SUBSTATION,300661,Camden,60,93656,CA,Fresno County,Unincorporated,-119.7989666,36.44598609
181,PG&E,,CEC,SUBSTATION,303854,Cantua,115,93210,CA,Fresno County,Unincorporated,-120.3416558,36.42931356
182,PG&E,,CEC,SUBSTATION,304454,Capco Madera,60,93622,CA,Fresno County,Firebaugh,-120.4495568,36.83609272
183,PG&E,,CEC,SUBSTATION,309247,Caruthers,,93609,CA,Fresno County,Unincorporated,-119.8814695,36.53216946
184,PG&E,,CEC,SUBSTATION,304203,Cheney,,93640,CA,Fresno County,Unincorporated,-120.5319935,36.63275972
185,PG&E,,CEC,SUBSTATION,305589,Clovis,115,93611,CA,Fresno County,Clovis,-119.6812538,36.82619811
186,PG&E,H15,CEC,SUBSTATION,302915,Coppermine,115,93619,CA,Fresno County,Unincorporated,-119.6647064,36.89581265
187,Other,,CEC,SUBSTATION,302287,Derrick,,93210,CA,Fresno County,Unincorporated,-120.3378885,36.22650304
188,Other,,CEC,SUBSTATION,305901,Dinuba Energy,60,93654,CA,Tulare County,Unincorporated,-119.4190334,36.57016948
189,PG&E,,CEC,SUBSTATION,307630,Dunlap,60,93641,CA,Fresno County,Unincorporated,-119.0289556,36.70935277
190,PG&E,,CEC,SUBSTATION,304773,Fig Garden,,93711,CA,Fresno County,Fresno,-119.8589279,36.82191867
191,PG&E,,CEC,SUBSTATION,307163,Firebaugh,60,93622,CA,Fresno County,Unincorporated,-120.4663723,36.8505811
192,PG&E,15,CEC,SUBSTATION,309714,Gates,,93234,CA,Fresno County,Unincorporated,-120.1254637,36.14024498
193,PG&E,,CEC,SUBSTATION,303660,Giffen,60,93608,CA,Fresno County,Unincorporated,-120.3347756,36.5451436
194,PG&E,,CEC,SUBSTATION,304973,Hammonds,115,93622,CA,Fresno County,Unincorporated,-120.6033108,36.72023522
195,PG&E,,CEC,SUBSTATION,303306,Helm,230,93660,CA,Fresno County,Unincorporated,-120.1761988,36.59142343
196,PG&E,15,CEC,SUBSTATION,302888,Herndon,230,93722,CA,Fresno County,Fresno,-119.9221347,36.84471786
197,PG&E,,CEC,SUBSTATION,304055,Huron,115,93234,CA,Fresno County,Unincorporated,-120.1039111,36.18606391
198,PG&E,,CEC,SUBSTATION,310472,Kerman,60,93630,CA,Fresno County,Unincorporated,-120.060083,36.69153501
199,PG&E,,CEC,SUBSTATION,301827,Kearney (New),230,93706,CA,Fresno County,Unincorporated,-119.882865,36.70562289
200,PG&E,,CEC,SUBSTATION,305853,Kearney (Old),60,93706,CA,Fresno County,Unincorporated,-119.880023,36.706794
201,PG&E,H5,CEC,SUBSTATION,304409,Kings River,,93664,CA,Fresno County,Unincorporated,-119.1594746,36.88826815
202,PG&E,,CEC,SUBSTATION,301616,Kingsburg,115,93631,CA,Fresno County,Unincorporated,-119.5824902,36.48843212
203,PG&E,,CEC,SUBSTATION,307652,Malaga,115,93725,CA,Fresno County,Unincorporated,-119.726534,36.69325502
204,PG&E,,CEC,SUBSTATION,300176,Manchester,115,93726,CA,Fresno County,Fresno,-119.7878789,36.78805531
205,PG&E,H5,CEC,SUBSTATION,308822,McCall,230,93625,CA,Fresno County,Unincorporated,-119.6392106,36.61082901
206,PG&E,,CEC,SUBSTATION,304647,Mc Mullin,230,93706,CA,Fresno County,Unincorporated,-119.9887084,36.59336916
207,PG&E,,CEC,SUBSTATION,309412,Mendota,115,93640,CA,Fresno County,Unincorporated,-120.4589551,36.72059631
208,Other,,CEC,SUBSTATION,310154,Mendota Biomass,60,93640,CA,Fresno County,Mendota,-120.3653702,36.75624051
209,PG&E,,CEC,SUBSTATION,306702,Oro Loma,115,93622,CA,Fresno County,Unincorporated,-120.654916,36.88675057
210,PG&E,,CEC,SUBSTATION,302316,Bowles,60,93725,CA,Fresno County,Unincorporated,-119.773307,36.60561902
211,PG&E,,CEC,SUBSTATION,307408,Panoche,230,93622,CA,Fresno County,Unincorporated,-120.5817561,36.65353625
212,PG&E,,CEC,SUBSTATION,301266,Parlier,,93648,CA,Fresno County,Parlier,-119.5213101,36.60755351
213,Other,H5,CEC,,,Piedra,,93657,CA,Fresno County,Unincorporated,-119.4034036,36.78995077
214,PG&E,,CEC,SUBSTATION,301252,Rainbow,,93657,CA,Fresno County,Unincorporated,-119.5381139,36.71022222
215,PG&E,,CEC,SUBSTATION,308378,Reedley,115,93654,CA,Fresno County,Unincorporated,-119.3762084,36.6043472
216,PG&E,,CEC,SUBSTATION,302873,San Joaquin,60,93660,CA,Fresno County,Unincorporated,-120.1783513,36.62093615
217,PG&E,,CEC,SUBSTATION,309016,Sand Creek,60,93647,CA,Tulare County,Unincorporated,-119.1604981,36.64478731
218,PG&E,H5,CEC,SUBSTATION,303753,Sanger,115,93657,CA,Fresno County,Unincorporated,-119.6109001,36.70722322
219,PG&E,,CEC,SUBSTATION,304309,Schindler,115,93234,CA,Fresno County,Unincorporated,-120.1387222,36.40194442
220,PG&E,,CEC,SUBSTATION,304332,Stroud,60,93627,CA,Fresno County,Unincorporated,-120.1045065,36.53108764
221,PG&E,,CEC,SUBSTATION,310134,Tivy Valley,,93657,CA,Fresno County,Unincorporated,-119.393313,36.77054901
222,Other,,CEC,SUBSTATION,303835,Air Products,115,93725,CA,Fresno County,Unincorporated,-119.721984,36.68753802
223,PG&E,,CEC,SUBSTATION,305874,Wahtoke,115,93654,CA,Fresno County,Reedley,-119.4526087,36.61539071
224,WAPA,,CEC,SUBSTATION,309374,Wesix,60,93668,CA,Fresno County,Unincorporated,-120.3343954,36.66108307
225,PG&E,,CEC,SUBSTATION,309459,West Fresno,115,93706,CA,Fresno County,Fresno,-119.8190045,36.71817367
226,Other,,CEC,SUBSTATION,305840,Westlands 16Ra,115,93210,CA,Fresno County,Unincorporated,-120.2792785,36.39913989
227,Other,,CEC,SUBSTATION,305020,Westlands 18Ra,60,93210,CA,Fresno County,Unincorporated,-120.2512062,36.35685741
228,PG&E,,CEC,SUBSTATION,302044,Woodward,115,93730,CA,Fresno County,Fresno,-119.751001,36.89627702
229,SCE,H6,CEC,,,Camp 10,230,93664,CA,Fresno County,Unincorporated,-119.2403671,37.20417858
230,SCE,H6,CEC,SUBSTATION,302844,Line Creek,33,93634,CA,Fresno County,Unincorporated,-119.1943091,37.24547409
231,SCE,H6,CEC,SUBSTATION,308838,Portal,33,93664,CA,Fresno County,Unincorporated,-119.1591177,37.25699116
232,SCE,H6,CEC,,,Pitman,230,93664,CA,Fresno County,Unincorporated,-119.2408464,37.20543874
233,PG&E,,CEC,SUBSTATION,307108,De Francesco,,93622,CA,Fresno County,Unincorporated,-120.6203074,36.83604392
234,PG&E,,CEC,SUBSTATION,301242,Gates Wellhead,60,93234,CA,Fresno County,Unincorporated,-120.1478193,36.15252107
235,PG&E,,CEC,SUBSTATION,301251,Jacinto,60,95943,CA,Glenn County,Unincorporated,-122.0104719,39.58278564
236,PG&E,,CEC,SUBSTATION,308466,Capay,60,95963,CA,Glenn County,Unincorporated,-122.1038109,39.77596358
237,PG&E,,CEC,SUBSTATION,310114,Elk Creek,60,95939,CA,Glenn County,Unincorporated,-122.5429104,39.5929137
238,PG&E,,CEC,SUBSTATION,305750,Glenn,230,95963,CA,Glenn County,Unincorporated,-122.1429041,39.77791304
239,PG&E,,CEC,SUBSTATION,303881,Headgate,60,95963,CA,Glenn County,Unincorporated,-122.0513104,39.78927916
240,PG&E,,CEC,SUBSTATION,306883,Logan Creek,230,95988,CA,Glenn County,Unincorporated,-122.2630509,39.53951119
241,PG&E,,CEC,SUBSTATION,302830,Orland B,60,95963,CA,Glenn County,Unincorporated,-122.178741,39.725196
242,PG&E,,CEC,,,Provident,60,95943,CA,Glenn County,Unincorporated,-122.0047037,39.55776855
243,PG&E,,CEC,SUBSTATION,306643,Willows A,60,95988,CA,Glenn County,Unincorporated,-122.1861239,39.531676
244,PG&E,,CEC,SUBSTATION,310479,Stony Gorge,,95939,CA,Glenn County,Unincorporated,-122.533157,39.58704303
245,PG&E,,CEC,SUBSTATION,308230,Ultra Power,60,95521,CA,Humboldt County,Blue Lake,-123.9946333,40.87793436
246,PG&E,,CEC,SUBSTATION,304334,Arcata,60,95521,CA,Humboldt County,Arcata,-124.0884243,40.86708117
247,PG&E,,CEC,SUBSTATION,300001,Big Lagoon,60,95570,CA,Humboldt County,Unincorporated,-124.1020064,41.16271474
248,Other,,CEC,SUBSTATION,310198,Blue Chip Milling,60,95519,CA,Humboldt County,Unincorporated,-124.0343692,40.90584397
249,PG&E,,CEC,SUBSTATION,307572,Blue Lake,60,95525,CA,Humboldt County,Unincorporated,-123.9805907,40.8798343
250,PG&E,,CEC,SUBSTATION,306209,Bridgeville,115,95526,CA,Humboldt County,Unincorporated,-123.7803098,40.47964597
251,PG&E,,CEC,SUBSTATION,302794,Carlotta,60,95547,CA,Humboldt County,Unincorporated,-124.0637673,40.54114692
252,PG&E,,CEC,SUBSTATION,301875,Eel River,60,95536,CA,Humboldt County,Unincorporated,-124.2101328,40.60262281
253,PG&E,,CEC,SUBSTATION,305866,Fairhaven,60,95564,CA,Humboldt County,Unincorporated,-124.1962938,40.80046704
254,Other,,CEC,SUBSTATION,306783,Lousiana Pacific,60,95564,CA,Humboldt County,Unincorporated,-124.1961963,40.8059206
255,PG&E,,CEC,SUBSTATION,309820,Fort Seward,60,95511,CA,Humboldt County,Unincorporated,-123.5963844,40.21377701
256,PG&E,,CEC,SUBSTATION,302998,Fruitland,60,95554,CA,Humboldt County,Unincorporated,-123.8373077,40.28584174
257,PG&E,,CEC,SUBSTATION,301728,Garberville,60,95542,CA,Humboldt County,Unincorporated,-123.7928774,40.10300786
258,PG&E,,CEC,SUBSTATION,305752,Harris,60,95503,CA,Humboldt County,Unincorporated,-124.1318534,40.78091459
259,PG&E,,CEC,SUBSTATION,300663,Hoopa,60,95546,CA,Humboldt County,Unincorporated,-123.6821089,41.05646539
260,PG&E,,CEC,SUBSTATION,303673,Humboldt,115,95503,CA,Humboldt County,Unincorporated,-124.11238,40.78258458
261,PG&E,,CEC,SUBSTATION,310336,Humboldt Bay,,95503,CA,Humboldt County,Unincorporated,-124.2096559,40.74032526
262,PG&E,,CEC,SUBSTATION,307372,Janes Creek,60,95521,CA,Humboldt County,Arcata,-124.072347,40.90513782
263,Other,,CEC,SUBSTATION,304968,Sierra Pacific Lumber,60,95521,CA,Humboldt County,Unincorporated,-124.1523425,40.86575137
264,PG&E,,CEC,SUBSTATION,310450,Maple Creek,,95550,CA,Humboldt County,Unincorporated,-123.8737002,40.76789911
265,PG&E,,CEC,SUBSTATION,309670,Newburg,60,95540,CA,Humboldt County,Fortuna,-124.1352072,40.59459298
266,Other,,CEC,SUBSTATION,303676,Windmaster,230,94514,CA,Contra Costa County,Unincorporated,-121.641651,37.80116
267,Other,,CEC,SUBSTATION,302363,Pacific Lumber,60,95565,CA,Humboldt County,Unincorporated,-124.1040001,40.48092347
268,PG&E,,CEC,,,Ridge Cabin,,95550,CA,Humboldt County,Unincorporated,-123.6697785,40.72891925
269,PG&E,,CEC,SUBSTATION,308528,Rio Dell,60,95562,CA,Humboldt County,Rio Dell,-124.0992681,40.49538982
270,PG&E,,CEC,SUBSTATION,308615,Russ Ranch,60,95550,CA,Humboldt County,Unincorporated,-123.8282375,40.82049761
271,Other,,CEC,SUBSTATION,303204,Mrip,,95366,CA,San Joaquin County,Ripon,-121.120652,37.73329501
272,PG&E,,CEC,SUBSTATION,300777,Trinidad,60,95570,CA,Humboldt County,Unincorporated,-124.1284232,41.06473688
273,PG&E,,CEC,SUBSTATION,309847,Willow Creek,60,95573,CA,Humboldt County,Unincorporated,-123.6401062,40.9478759
274,IID,,CEC,SUBSTATION,309842,Alamorio,92,92227,CA,Imperial County,Brawley,-115.5188889,32.99897909
275,IID,,CEC,SUBSTATION,303931,Anza,92,92274,CA,Imperial County,Unincorporated,-115.9785357,33.12533089
276,IID,,CEC,SUBSTATION,304974,Bard,,92283,CA,Imperial County,Unincorporated,-114.5745907,32.78149971
277,IID,,CEC,SUBSTATION,304064,Barret,,92283,CA,Imperial County,Unincorporated,-114.4800809,32.90250651
278,IID,,CEC,SUBSTATION,303610,Bombay,92,92257,CA,Imperial County,Unincorporated,-115.6887666,33.38496117
279,IID,,CEC,SUBSTATION,309012,Calexico,,92231,CA,Imperial County,Calexico,-115.5002718,32.66910959
280,IID,,CEC,SUBSTATION,309726,Calipatria,92,92233,CA,Imperial County,Calipatria,-115.5101474,33.12656119
281,IID,,CEC,SUBSTATION,306347,Central,,92243,CA,Imperial County,El Centro,-115.5779823,32.81791422
282,IID,,CEC,SUBSTATION,303532,Dahlia,92,92243,CA,Imperial County,El Centro,-115.5778337,32.78105848
283,IID,,CEC,SUBSTATION,306917,Desert Shores,92,92274,CA,Imperial County,Unincorporated,-116.0507499,33.41180556
284,IID,,CEC,SUBSTATION,304440,Dixieland,92,92274,CA,Imperial County,Unincorporated,-115.77842,32.79376148
285,IID,46,CEC,SUBSTATION,301611,El Centro,230,92243,CA,Imperial County,El Centro,-115.5371471,32.80234146
286,IID,,CEC,SUBSTATION,305657,Euclid,92,92251,CA,Imperial County,Unincorporated,-115.5791028,32.79963333
287,IID,,CEC,SUBSTATION,304184,Goldfields,92,92283,CA,Imperial County,Unincorporated,-114.9841401,33.05360069
288,IID,,CEC,SUBSTATION,304348,Goldmine,,92283,CA,Imperial County,Unincorporated,-114.8841944,33.04703333
289,IID,,CEC,SUBSTATION,301306,Heber,92,92243,CA,Imperial County,Unincorporated,-115.5345564,32.71478156
290,IID,,CEC,SUBSTATION,300726,Highline,230,92250,CA,Imperial County,Unincorporated,-115.2737119,32.77029303
291,IID,,CEC,SUBSTATION,303539,Holly Sugar,,92251,CA,Imperial County,Unincorporated,-115.5681245,32.91199807
292,IID,,CEC,SUBSTATION,301784,Holtville,,92250,CA,Imperial County,Holtville,-115.3879944,32.81241389
293,IID,,CEC,SUBSTATION,310188,Imperial Valley,,92251,CA,Imperial County,Imperial,-115.5637445,32.85615594
294,SDG&E,"Southwest Powerlink, 45, 46",CEC,SUBSTATION,300666,Imperial Valley,,92274,CA,Imperial County,Unincorporated,-115.7156615,32.71794776
295,SCE,,CEC,SUBSTATION,309703,El Segundo,,90245,CA,Los Angeles County,El Segundo,-118.4230749,33.90844364
296,IID,,CEC,SUBSTATION,302992,Mesquite,,92283,CA,Imperial County,Unincorporated,-114.9867354,33.02737071
297,IID,,CEC,SUBSTATION,310447,Midway,230,92233,CA,Imperial County,Unincorporated,-115.4344743,33.19236269
298,IID,,CEC,SUBSTATION,308891,No Mans Land,,92283,CA,Imperial County,Unincorporated,-114.590084,32.75293878
299,IID,,CEC,SUBSTATION,310380,Drop 2,,92283,CA,Imperial County,Unincorporated,-115.0311648,32.70621445
300,IID,,CEC,SUBSTATION,308885,Sand Hill,,92283,CA,Imperial County,Unincorporated,-114.9425616,32.71114659
301,IID,,CEC,SUBSTATION,300301,Araz,161,92283,CA,Imperial County,Unincorporated,-114.7126452,32.73657328
302,IID,,CEC,SUBSTATION,310007,Navy Base,92,92243,CA,Imperial County,Unincorporated,-115.680425,32.81140555
303,IID,,CEC,SUBSTATION,301669,Niland,161,92233,CA,Imperial County,Unincorporated,-115.501121,33.24227704
304,IID,,CEC,SUBSTATION,309476,Oakley,,92227,CA,Imperial County,Brawley,-115.5429722,32.98697223
305,IID,,CEC,SUBSTATION,307585,Perry,92,92231,CA,Imperial County,Calexico,-115.4907583,32.68710277
306,WAPA,,CEC,SUBSTATION,307389,Knob,,92283,CA,Imperial County,Unincorporated,-114.7486567,32.7603682
307,IID,,CEC,SUBSTATION,300850,Plaster City,,92259,CA,Imperial County,Unincorporated,-115.857801,32.79184606
308,IID,,CEC,SUBSTATION,306205,Pruett,,92231,CA,Imperial County,Unincorporated,-115.5085444,32.68598055
309,IID,,CEC,SUBSTATION,300430,Rio Vista,92,92227,CA,Imperial County,Brawley,-115.5342182,32.97039663
310,IID,,CEC,SUBSTATION,308892,Salton City,92,92274,CA,Imperial County,Unincorporated,-115.9698333,33.28528889
311,IID,,CEC,SUBSTATION,302005,Seeley,92,92273,CA,Imperial County,Unincorporated,-115.6946665,32.79148946
312,IID,,CEC,SUBSTATION,310226,Silsbee,,92243,CA,Imperial County,Unincorporated,-115.6376722,32.75270556
313,IID,,CEC,SUBSTATION,300759,Superstition,92,92251,CA,Imperial County,Unincorporated,-115.7434361,32.88062222
314,IID,,CEC,SUBSTATION,304392,Valley,92,92243,CA,Imperial County,Unincorporated,-115.5340356,32.75930406
315,IID,,CEC,SUBSTATION,304369,Verde,,92250,CA,Imperial County,Unincorporated,-115.2832006,32.69940301
316,IID,,CEC,SUBSTATION,304586,Westmorland,,92281,CA,Imperial County,Westmorland,-115.6189923,33.03810038
317,IID,,CEC,SUBSTATION,304614,Winterhaven,,92283,CA,Imperial County,Unincorporated,-114.6334667,32.73886389
318,SCE,,CEC,SUBSTATION,307164,Deep Springs,,93513,CA,Inyo County,Unincorporated,-117.9796042,37.37438227
319,SCE,,CEC,SUBSTATION,300467,Haiwee,,93555,CA,Inyo County,Unincorporated,-117.9564555,36.10989167
320,SCE,,CEC,SUBSTATION,300486,Lone Pine,,93545,CA,Inyo County,Unincorporated,-118.0725009,36.60071079
321,SCE,L1,CEC,SUBSTATION,304421,Morgan,,93514,CA,Inyo County,Unincorporated,-118.7018945,37.35976047
322,SCE,52,CEC,SUBSTATION,300630,Mt. Tom,,93514,CA,Inyo County,Unincorporated,-118.4653526,37.34980639
323,SCE,52,CEC,SUBSTATION,306686,Roberts,,93514,CA,Inyo County,Unincorporated,-118.3505364,37.40070021
324,PG&E,,CEC,SUBSTATION,303384,Berrenda A,70,93249,CA,Kern County,Unincorporated,-120.0111956,35.7116008
325,PG&E,,CEC,SUBSTATION,300599,Berrenda C,70,93249,CA,Kern County,Unincorporated,-120.0424297,35.65850145
326,Other,,CEC,SUBSTATION,310488,Castaic,70,93243,CA,Kern County,Unincorporated,-118.9009699,34.88051458
327,PG&E,,CEC,SUBSTATION,309030,Cawelo B,70,93308,CA,Kern County,Unincorporated,-119.1183189,35.4707658
328,PG&E,,CEC,SUBSTATION,300633,Cawelo C,115,93308,CA,Kern County,Unincorporated,-119.1154201,35.57075757
329,Other,,CEC,SUBSTATION,301591,Emidio Mobil,70,93313,CA,Kern County,Unincorporated,-119.0658716,35.06295044
330,PG&E,,CEC,SUBSTATION,306377,Kernwater,,93308,CA,Kern County,Unincorporated,-119.035393,35.40105743
331,SCE,,CEC,SUBSTATION,306358,Lebec,,93560,CA,Kern County,Unincorporated,-118.8442502,34.95491418
332,PG&E,,CEC,SUBSTATION,301793,Lost Hills,60,93249,CA,Kern County,Unincorporated,-119.8662835,35.78573189
333,PG&E,,CEC,SUBSTATION,304929,Petrol,115,93308,CA,Kern County,Unincorporated,-118.9921917,35.45463056
334,PG&E,,CEC,SUBSTATION,309576,Valpredo,70,93313,CA,Kern County,Unincorporated,-119.0618268,35.06401416
335,Other,,CEC,SUBSTATION,306710,Pacific Pipeline,70,93243,CA,Kern County,Unincorporated,-118.9252995,34.92639747
336,PG&E,,CEC,SUBSTATION,303111,Antelope,70,93249,CA,Kern County,Unincorporated,-119.9964345,35.6579012
337,PG&E,,CEC,SUBSTATION,306367,Arco,230,93249,CA,Kern County,Unincorporated,-119.9136038,35.7755224
338,PG&E,,CEC,SUBSTATION,307806,Arvin,70,93203,CA,Kern County,Unincorporated,-118.8784674,35.15031453
339,Other,,CEC,SUBSTATION,302255,Arvin-Edison,,93307,CA,Kern County,Unincorporated,-118.9332139,35.31698056
340,PG&E,,CEC,SUBSTATION,303106,Bakersfield,230,93301,CA,Kern County,Bakersfield,-119.004436,35.38723247
341,PG&E,,CEC,SUBSTATION,310253,Blackwell,70,93249,CA,Kern County,Unincorporated,-119.8537112,35.61462223
342,PG&E,,CEC,SUBSTATION,306815,Cadet,70,93268,CA,Kern County,Taft,-119.4035453,35.10678049
343,PG&E,,CEC,SUBSTATION,305663,Carnation Dairy,70,93313,CA,Kern County,Bakersfield,-119.0858067,35.31100608
344,PG&E,,CEC,SUBSTATION,310382,Carneras,70,93249,CA,Kern County,Unincorporated,-119.8052306,35.54109995
345,Other,,CEC,SUBSTATION,306309,Celeron,70,93251,CA,Kern County,Unincorporated,-119.7603817,35.4747136
346,PG&E,,CEC,SUBSTATION,304735,Chalk,70,93252,CA,Kern County,Unincorporated,-119.429419,35.09714151
347,PG&E,,CEC,SUBSTATION,303174,Charca,115,93280,CA,Kern County,Unincorporated,-119.3253139,35.60807501
348,PG&E,,CEC,SUBSTATION,306049,Columbus,115,93306,CA,Kern County,Bakersfield,-118.9398806,35.39840556
349,PG&E,,CEC,SUBSTATION,308995,Copus,70,93311,CA,Kern County,Unincorporated,-119.2789365,35.09339007
350,Other,,CEC,SUBSTATION,303117,Cymric,115,93251,CA,Kern County,Unincorporated,-119.6095695,35.31512502
351,PG&E,,CEC,SUBSTATION,302208,Devils Den,70,93249,CA,Kern County,Unincorporated,-119.9737889,35.77500833
352,Other,,CEC,SUBSTATION,306927,Dexel,115,93308,CA,Kern County,Unincorporated,-119.0211582,35.45555828
353,Other,,CEC,SUBSTATION,300808,Discovery,115,93308,CA,Kern County,Unincorporated,-118.9764344,35.42797818
354,Other,,CEC,SUBSTATION,301581,Double C,115,93308,CA,Kern County,Unincorporated,-119.0460399,35.50103906
355,PG&E,,CEC,SUBSTATION,303798,Eisen,,93307,CA,Kern County,Unincorporated,-118.9717712,35.35577972
356,PG&E,,CEC,SUBSTATION,308944,Elk Hills,70,93268,CA,Kern County,Unincorporated,-119.3766031,35.22606664
357,PG&E,,CEC,SUBSTATION,306798,Famoso,115,93250,CA,Kern County,Unincorporated,-119.2036531,35.60504033
358,PG&E,,CEC,SUBSTATION,307326,Fellows,115,93224,CA,Kern County,Unincorporated,-119.5852944,35.19517779
359,Other,,CEC,SUBSTATION,310454,Frito Lay,,93206,CA,Kern County,Unincorporated,-119.3214819,35.39404669
360,PG&E,,CEC,SUBSTATION,310060,Fruitvale,,93308,CA,Kern County,Bakersfield,-119.092688,35.3772676
361,PG&E,,CEC,SUBSTATION,302966,Ganso,115,93280,CA,Kern County,Unincorporated,-119.4489669,35.50111517
362,Other,,CEC,SUBSTATION,306903,Gardner,70,93268,CA,Kern County,Unincorporated,-119.3361848,35.15360385
363,PG&E,,CEC,SUBSTATION,309604,Goose Lake,115,93280,CA,Kern County,Unincorporated,-119.5798806,35.6016389
364,Other,,CEC,SUBSTATION,304813,Grapevine,70,93243,CA,Kern County,Unincorporated,-118.9261907,34.91833522
365,Other,,CEC,SUBSTATION,304677,Kelley,70,93225,CA,Kern County,Unincorporated,-119.0628496,35.02051185
366,PG&E,,CEC,SUBSTATION,300211,Kern Front,115,93308,CA,Kern County,Unincorporated,-119.0305112,35.50944487
367,PG&E,,CEC,SUBSTATION,303203,Kernridge,115,93251,CA,Kern County,Unincorporated,-119.7396299,35.44250986
368,PG&E,,CEC,SUBSTATION,306458,Lakeview,70,93313,CA,Kern County,Unincorporated,-119.1011222,35.09414443
369,PG&E,,CEC,SUBSTATION,304543,Lamont,115,93307,CA,Kern County,Unincorporated,-118.8614324,35.29677425
370,PG&E,,CEC,SUBSTATION,300679,Lerdo,115,93308,CA,Kern County,Unincorporated,-119.1518273,35.50036603
371,Other,,CEC,SUBSTATION,308439,Lost Hills (Texaco),,93249,CA,Kern County,Unincorporated,-119.7674512,35.66581543
372,PG&E,,CEC,SUBSTATION,302908,Magunden,,93306,CA,Kern County,Unincorporated,-118.9217317,35.36112683
373,PG&E,,CEC,SUBSTATION,306516,Maricopa,70,93268,CA,Kern County,Taft,-119.398181,35.10778002
374,PG&E,,CEC,SUBSTATION,303734,Mc Farland,70,93250,CA,Kern County,McFarland,-119.2768598,35.68838406
375,PG&E,,CEC,SUBSTATION,306607,Sysquoc,70,93251,CA,Kern County,Unincorporated,-119.6623248,35.31982573
376,Other,,CEC,SUBSTATION,300477,Midsun,115,93224,CA,Kern County,Unincorporated,-119.6245472,35.24241942
377,PG&E,"15, 26",CEC,SUBSTATION,300895,Midway,,93206,CA,Kern County,Unincorporated,-119.4523761,35.40368095
378,Other,,CEC,SUBSTATION,303270,Mobil,70,93224,CA,Kern County,Unincorporated,-119.5803103,35.2329709
379,Other,,CEC,SUBSTATION,305753,Moco,70,93252,CA,Kern County,Unincorporated,-119.4070389,35.09082503
380,Other,,CEC,SUBSTATION,301564,Mt. Poso,115,93308,CA,Kern County,Unincorporated,-119.0813493,35.54481199
381,PG&E,,CEC,SUBSTATION,302068,Norco,115,93276,CA,Kern County,Unincorporated,-119.3090374,35.28599981
382,PG&E,,CEC,SUBSTATION,307206,Old River,70,93313,CA,Kern County,Unincorporated,-119.1006862,35.20843056
383,PG&E,,CEC,SUBSTATION,309551,Panama,70,93307,CA,Kern County,Bakersfield,-119.0216521,35.29555607
384,Other,,CEC,SUBSTATION,301433,Petro Lewis,70,93249,CA,Kern County,Unincorporated,-119.7595381,35.517707
385,Other,,CEC,SUBSTATION,304420,Ultra Power,,93308,CA,Kern County,Unincorporated,-119.0754452,35.54776114
386,PG&E,,CEC,SUBSTATION,308428,Rio Bravo,115,93263,CA,Kern County,Unincorporated,-119.2607154,35.44202961
387,PG&E,,CEC,SUBSTATION,306232,Rio Bravo,70,93306,CA,Kern County,Bakersfield,-118.8226315,35.42982347
388,Other,,CEC,SUBSTATION,300494,Rose,70,93307,CA,Kern County,Unincorporated,-118.942802,34.99182935
389,PG&E,,CEC,,,Rosedale,115,93308,CA,Kern County,Unincorporated,-119.077933,35.37716309
390,PG&E,,CEC,SUBSTATION,308921,San Bernard,70,93203,CA,Kern County,Unincorporated,-118.8781167,35.09239722
391,Other,,CEC,SUBSTATION,304147,Santa Fe Energy,115,93224,CA,Kern County,Unincorporated,-119.5823472,35.1933472
392,PG&E,,CEC,SUBSTATION,304816,Semitropic,115,93280,CA,Kern County,Unincorporated,-119.4375241,35.60074571
393,PG&E,,CEC,SUBSTATION,304894,Shafter,115,93263,CA,Kern County,Unincorporated,-119.3178014,35.51390484
394,PG&E,,CEC,SUBSTATION,303310,Badger Creek,115,93308,CA,Kern County,Unincorporated,-119.0297027,35.48395558
395,PG&E,,CEC,SUBSTATION,307733,Smyrna,115,93280,CA,Kern County,Unincorporated,-119.4553416,35.71782151
396,Other,,CEC,SUBSTATION,303250,Stallion,66,93561,CA,Kern County,Tehachapi,-118.5670131,35.10881659
397,PG&E,,CEC,SUBSTATION,306267,Stockdale,230,93313,CA,Kern County,Bakersfield,-119.0676343,35.31705692
398,PG&E,,CEC,SUBSTATION,301560,Berry Petroleum,70,93252,CA,Kern County,Unincorporated,-119.4438304,35.0932291
399,Other,,CEC,SUBSTATION,309706,Taft,115,93268,CA,Kern County,Taft,-119.4820278,35.13594611
400,Other,,CEC,SUBSTATION,310190,Tannehill Electric Co.,70,93252,CA,Kern County,Unincorporated,-119.4406975,35.09175615
401,PG&E,,CEC,SUBSTATION,305592,Tecuya,70,93313,CA,Kern County,Unincorporated,-118.9796384,35.01965139
402,PG&E,,CEC,SUBSTATION,303781,Tejon,70,93307,CA,Kern County,Unincorporated,-118.9551559,35.01965399
403,PG&E,,CEC,SUBSTATION,308923,Temblor,115,93251,CA,Kern County,Unincorporated,-119.6961876,35.38274812
404,Other,,CEC,SUBSTATION,306333,Midset,115,93224,CA,Kern County,Unincorporated,-119.5712604,35.19434121
405,PG&E,,CEC,SUBSTATION,307333,Tupman,115,93314,CA,Kern County,Unincorporated,-119.2706556,35.35416109
406,PG&E,,CEC,SUBSTATION,308624,Twisselman,70,93249,CA,Kern County,Unincorporated,-119.8580981,35.73065651
407,PG&E,,CEC,SUBSTATION,304418,Rio Bravo Poso,115,93308,CA,Kern County,Unincorporated,-119.0065272,35.57653241
408,Other,,CEC,SUBSTATION,305081,Vedder,115,93308,CA,Kern County,Unincorporated,-118.9590486,35.59266231
409,PG&E,,CEC,SUBSTATION,308820,Wasco,115,93280,CA,Kern County,Unincorporated,-119.3261944,35.6018111
410,PG&E,,CEC,SUBSTATION,304041,Weedpatch,70,93307,CA,Kern County,Unincorporated,-118.8800083,35.22374722
411,PG&E,,CEC,SUBSTATION,305777,Wellfield,70,93203,CA,Kern County,Unincorporated,-118.7789744,35.22432026
412,PG&E,,CEC,SUBSTATION,308607,West Park,,93301,CA,Kern County,Bakersfield,-119.0403167,35.37392781
413,PG&E,,CEC,SUBSTATION,309582,Wheeler Ridge,230,93307,CA,Kern County,Unincorporated,-118.9759647,35.08875272
414,PG&E,,CEC,SUBSTATION,308807,Witco,115,93308,CA,Kern County,Unincorporated,-118.9775056,35.42795693
415,Other,,CEC,SUBSTATION,301396,Getty Oil,115,93251,CA,Kern County,Unincorporated,-119.5924379,35.29606803
416,PG&E,,CEC,SUBSTATION,303990,Kern Oil,115,93308,CA,Kern County,Unincorporated,-119.0207361,35.44070561
417,SCE,,CEC,SUBSTATION,309973,Alamo,66,93536,CA,Los Angeles County,Unincorporated,-118.6861278,34.81550555
418,SCE,,CEC,SUBSTATION,308790,Borel,66,93205,CA,Kern County,Unincorporated,-118.5247667,35.58810833
419,SCE,,CEC,SUBSTATION,301406,Breeze,66,93561,CA,Kern County,Unincorporated,-118.3741213,35.12389407
420,SCE,,CEC,SUBSTATION,304943,Browning,66,93250,CA,Kern County,Unincorporated,-119.2045057,35.70369931
421,SCE,,CEC,SUBSTATION,301041,Cal Cement,66,93501,CA,Kern County,Unincorporated,-118.3108221,35.03026569
422,SCE,,CEC,SUBSTATION,310266,Corum,66,93523,CA,Kern County,Unincorporated,-117.9530671,34.94057401
423,SCE,,CEC,SUBSTATION,307260,Cummings,66,93561,CA,Kern County,Unincorporated,-118.4946673,35.10966362
424,SCE,,CEC,SUBSTATION,303312,Delano,66,93215,CA,Kern County,Delano,-119.2424861,35.77551392
425,Other,,CEC,SUBSTATION,303926,Edmonston,,93560,CA,Kern County,Unincorporated,-118.826285,34.94123996
426,SCE,,CEC,SUBSTATION,303186,Edwards,,93523,CA,Kern County,Unincorporated,-117.8910945,34.98447778
427,SCE,,CEC,SUBSTATION,301158,Frazier Park,66,93225,CA,Kern County,Unincorporated,-119.0098992,34.81499978
428,SCE,,CEC,SUBSTATION,303613,Glennville,66,93226,CA,Kern County,Unincorporated,-118.6950727,35.7222499
429,SCE,,CEC,SUBSTATION,309740,Goldtown,66,93501,CA,Kern County,Unincorporated,-118.1861563,35.05410894
430,SCE,,CEC,SUBSTATION,300070,Great Lakes,,93560,CA,Kern County,Unincorporated,-118.1554673,34.83738247
431,SCE,,CEC,SUBSTATION,309479,Greenhorn,66,93285,CA,Kern County,Unincorporated,-118.5564021,35.73837172
432,SCE,,CEC,SUBSTATION,303852,Havilah,66,93518,CA,Kern County,Unincorporated,-118.5275716,35.48368775
433,SCE,,CEC,SUBSTATION,304443,Holgate,115,93523,CA,Kern County,Unincorporated,-117.7040349,35.0141227
434,SCE,,CEC,SUBSTATION,300959,Inyokern,,93555,CA,Kern County,Unincorporated,-117.7958009,35.65251883
435,SCE,,CEC,SUBSTATION,303743,Isabella,66,93240,CA,Kern County,Unincorporated,-118.478256,35.63265859
436,SCE,,CEC,SUBSTATION,308434,Kernville,66,93238,CA,Kern County,Unincorporated,-118.4323644,35.77251219
437,SCE,,CEC,SUBSTATION,309651,Lakegen,66,93240,CA,Kern County,Unincorporated,-118.4818546,35.6444035
438,SCE,,CEC,SUBSTATION,307171,Loraine,66,93518,CA,Kern County,Unincorporated,-118.4232873,35.30690556
439,SCE,,CEC,SUBSTATION,304561,Monolith,66,93561,CA,Kern County,Unincorporated,-118.3796721,35.12376189
440,Other,15X,CEC,SUBSTATION,303072,Shiloh I,,94571,CA,Solano County,Unincorporated,-121.832271,38.12530207
441,SCE,,CEC,SUBSTATION,309927,Pandol,66,93215,CA,Kern County,Unincorporated,-119.2333701,35.71895095
442,SCE,,CEC,SUBSTATION,304860,Pastoria,,93243,CA,Kern County,Unincorporated,-118.8431278,34.93527777
443,SCE,,CEC,SUBSTATION,308687,Quinn,66,93215,CA,Kern County,Unincorporated,-119.1298083,35.73285976
444,SCE,,CEC,SUBSTATION,306204,Randsburg,,93528,CA,Kern County,Unincorporated,-117.647446,35.36522362
445,SCE,,CEC,SUBSTATION,307682,Rocket Test,115,93524,CA,Kern County,Unincorporated,-117.6980782,34.93049394
446,SCE,,CEC,SUBSTATION,308310,Rosamond,66,93560,CA,Kern County,Unincorporated,-118.2373311,34.86428131
447,SCE,,CEC,SUBSTATION,301654,Southbase,115,93524,CA,Kern County,Unincorporated,-117.8962833,34.87995833
448,SCE,,CEC,SUBSTATION,307099,Walker Basin,66,93518,CA,Kern County,Unincorporated,-118.492508,35.41102545
449,SCE,,CEC,SUBSTATION,301495,Weldon,66,93283,CA,Kern County,Unincorporated,-118.2628215,35.66663278
450,SCE,,CEC,SUBSTATION,304254,Westpac,66,93243,CA,Kern County,Unincorporated,-118.7510667,34.81941387
451,SCE,,CEC,SUBSTATION,301730,Sycamore,,93308,CA,Kern County,Unincorporated,-118.9904154,35.45227062
452,PG&E,,CEC,SUBSTATION,305860,Boswell,,93212,CA,Kings County,Unincorporated,-119.5536056,36.08514444
453,PG&E,,CEC,SUBSTATION,303505,Angiola,60,93239,CA,Kings County,Unincorporated,-119.5717083,35.99203334
454,Other,,CEC,SUBSTATION,303747,Armstrong,60,93230,CA,Kings County,Hanford,-119.6473106,36.26869793
455,Other,,CEC,SUBSTATION,307390,Avenal,60,93204,CA,Kings County,Avenal,-120.1171583,35.97812224
456,PG&E,,CEC,SUBSTATION,301468,Corcoran,115,93212,CA,Kings County,Unincorporated,-119.5571927,36.10940095
457,PG&E,,CEC,SUBSTATION,309019,Guernsey,60,93230,CA,Kings County,Unincorporated,-119.6552247,36.22631337
458,Other,,CEC,,,Hanford,60,93230,CA,Kings County,Hanford,-119.6489407,36.2696503
459,PG&E,,CEC,SUBSTATION,309205,Hardwick,60,93230,CA,Kings County,Unincorporated,-119.6858489,36.40412655
460,PG&E,15,CEC,SUBSTATION,304664,Henrietta,,93245,CA,Kings County,Unincorporated,-119.903272,36.24191955
461,PG&E,,CEC,SUBSTATION,310279,Jacobs Corner,60,93245,CA,Kings County,Unincorporated,-119.7799139,36.2224111
462,PG&E,,CEC,SUBSTATION,302850,Kettleman Hills,60,93204,CA,Kings County,Avenal,-120.1113917,36.04359445
463,PG&E,,CEC,SUBSTATION,303868,Lemoore,60,93245,CA,Kings County,Lemoore,-119.7983006,36.30933381
464,PG&E,,CEC,SUBSTATION,303921,Reserve Oil,60,93230,CA,Kings County,Hanford,-119.6536119,36.27633342
465,PG&E,,CEC,SUBSTATION,310461,Tulare Lake,60,93239,CA,Kings County,Unincorporated,-119.9494833,36.00345277
466,PG&E,,CEC,SUBSTATION,307060,Clear Lake,60,95453,CA,Lake County,Unincorporated,-122.8940008,39.00776751
467,PG&E,,CEC,SUBSTATION,308881,Eagle Rock,,95441,CA,Sonoma County,Unincorporated,-122.8101522,38.82904836
468,PG&E,,CEC,SUBSTATION,309308,Hartley,60,95453,CA,Lake County,Unincorporated,-122.9325679,39.07721407
469,PG&E,,CEC,SUBSTATION,310004,Konocti,60,95451,CA,Lake County,Unincorporated,-122.7410063,38.93233036
470,PG&E,,CEC,SUBSTATION,303121,Lower Lake,115,95457,CA,Lake County,Unincorporated,-122.6173674,38.9106407
471,PG&E,,CEC,SUBSTATION,309793,Lucerne,115,95464,CA,Lake County,Unincorporated,-122.8128382,39.11038686
472,PG&E,,CEC,SUBSTATION,305745,Middletown,,95461,CA,Lake County,Unincorporated,-122.6087225,38.75291721
473,PG&E,,CEC,SUBSTATION,310476,Redbud,115,95423,CA,Lake County,Unincorporated,-122.6623833,39.02753504
474,PG&E,,CEC,SUBSTATION,301549,Upper Lake,60,95485,CA,Lake County,Unincorporated,-122.9166584,39.14574049
475,PG&E,,CEC,SUBSTATION,300245,Halls Flat,60,96056,CA,Lassen County,Unincorporated,-121.2780001,40.74489222
476,Other,,CEC,SUBSTATION,301652,Janesville,60,96114,CA,Lassen County,Unincorporated,-120.5403437,40.31499479
477,Other,,CEC,SUBSTATION,300920,Standish,60,96130,CA,Lassen County,Unincorporated,-120.4226288,40.36547281
478,Other,,CEC,SUBSTATION,310003,Susan,60,96130,CA,Lassen County,Susanville,-120.6671093,40.41749316
479,Other,,CEC,SUBSTATION,301221,Leavitt,60,96130,CA,Lassen County,Unincorporated,-120.5265166,40.39780408
480,Other,,CEC,SUBSTATION,303624,Milford,60,96121,CA,Lassen County,Unincorporated,-120.3519513,40.15526654
481,Other,,CEC,SUBSTATION,300834,Madeline,,96132,CA,Lassen County,Unincorporated,-120.5034896,40.96083477
482,PG&E,,CEC,SUBSTATION,302156,Bogard,60,96056,CA,Lassen County,Unincorporated,-121.0915844,40.58807127
483,PG&E,,CEC,SUBSTATION,304224,Hamilton Branch,60,96137,CA,Plumas County,Unincorporated,-121.0881239,40.26934857
484,Other,,CEC,SUBSTATION,301991,Westwood,60,96137,CA,Lassen County,Unincorporated,-121.0016847,40.29997937
485,Other,,CEC,SUBSTATION,304129,Airway,66,91201,CA,Los Angeles County,Glendale,-118.2841966,34.16270281
486,LADWP,,CEC,SUBSTATION,306623,Gramercy,138,90047,CA,Los Angeles County,Los Angeles,-118.312887,33.94650901
487,LADWP,,CEC,SUBSTATION,304137,Halldale,,90501,CA,Los Angeles County,Los Angeles,-118.3033196,33.84777363
488,LADWP,,CEC,SUBSTATION,301100,Hyperion,,90045,CA,Los Angeles County,Los Angeles,-118.4259295,33.9316904
489,SCE,,CEC,SUBSTATION,301636,San Fernando,66,91345,CA,Los Angeles County,Los Angeles,-118.4587732,34.27357024
490,LADWP,,CEC,SUBSTATION,300627,Imperial Terminal Tower,138,90047,CA,Los Angeles County,Unincorporated,-118.3096394,33.92644736
491,LADWP,,CEC,SUBSTATION,309843,Kenter Canyon,230,90049,CA,Los Angeles County,Los Angeles,-118.4883979,34.06828428
492,SCE,,CEC,SUBSTATION,300578,Movie,66,90230,CA,Los Angeles County,Culver City,-118.3940417,33.99032214
493,LADWP,,CEC,SUBSTATION,308206,Nichols Canyon,230,90046,CA,Los Angeles County,Los Angeles,-118.3587531,34.10597579
494,LADWP,,CEC,SUBSTATION,306152,Olive,66,91342,CA,Los Angeles County,Los Angeles,-118.4505278,34.30787223
495,LADWP,LADWP-N,CEC,SUBSTATION,307693,Rinaldi,500,91344,CA,Los Angeles County,Los Angeles,-118.4783315,34.28065283
496,LADWP,,CEC,SUBSTATION,309042,River,230,90021,CA,Los Angeles County,Los Angeles,-118.2298892,34.03773018
497,LADWP,,CEC,SUBSTATION,310527,Station A (St. John),230,90012,CA,Los Angeles County,Los Angeles,-118.2261196,34.06710227
498,LADWP,LADWP-S,CEC,SUBSTATION,304073,Station B (Century),287,90002,CA,Los Angeles County,Los Angeles,-118.255162,33.94828199
499,LADWP,,CEC,SUBSTATION,310179,Station C (Wilmington),138,90744,CA,Los Angeles County,Los Angeles,-118.2578811,33.79819523
500,LADWP,,CEC,SUBSTATION,303099,Station D (Fairfax),,90034,CA,Los Angeles County,Los Angeles,-118.3707578,34.03825179
501,LADWP,LADWP-N,CEC,SUBSTATION,300429,Station E (Toluca),500,91601,CA,Los Angeles County,Los Angeles,-118.3598405,34.1762174
502,LADWP,,CEC,SUBSTATION,308269,Station F (Velasco & Kinetic),230,90023,CA,Los Angeles County,Los Angeles,-118.2038404,34.0154379
503,LADWP,,CEC,SUBSTATION,301194,Station G (Atwater),230,90039,CA,Los Angeles County,Los Angeles,-118.2544298,34.10941811
504,LADWP,,CEC,SUBSTATION,303899,Station H (Hollywood),230,90046,CA,Los Angeles County,Los Angeles,-118.3473787,34.08819144
505,LADWP,,CEC,SUBSTATION,300493,Station J,230,91324,CA,Los Angeles County,Los Angeles,-118.543507,34.22935188
506,LADWP,,CEC,SUBSTATION,301105,Station K (Olympic),230,90025,CA,Los Angeles County,Los Angeles,-118.460035,34.03329601
507,LADWP,,CEC,SUBSTATION,309553,Station L (Scattergood),230,90293,CA,Los Angeles County,Los Angeles,-118.4253678,33.91922778
508,LADWP,LADWP-N,CEC,SUBSTATION,309569,Station M (Valley),230,91352,CA,Los Angeles County,Los Angeles,-118.3925549,34.24293289
509,LADWP,,CEC,SUBSTATION,306012,Station P (Market),230,90013,CA,Los Angeles County,Los Angeles,-118.2461297,34.04335333
510,LADWP,,CEC,SUBSTATION,308581,Station Q (Harbor),138,90744,CA,Los Angeles County,Los Angeles,-118.264962,33.77047202
511,LADWP,,CEC,SUBSTATION,304217,Station S (Van Nuys),230,91401,CA,Los Angeles County,Los Angeles,-118.423154,34.17158743
512,LADWP,,CEC,SUBSTATION,308991,Station T,230,91303,CA,Los Angeles County,Los Angeles,-118.5915883,34.1895064
513,LADWP,,CEC,SUBSTATION,303620,Station U (Tarzana),230,91356,CA,Los Angeles County,Los Angeles,-118.5438005,34.17935193
514,LADWP,,CEC,SUBSTATION,310199,Sylmar West,230,91344,CA,Los Angeles County,Los Angeles,-118.4900862,34.31212171
515,Other,,CEC,SUBSTATION,309148,Lincoln,66,91504,CA,Los Angeles County,Burbank,-118.3440788,34.19901498
516,Other,,CEC,SUBSTATION,308793,Mcneil,66,91502,CA,Los Angeles County,Burbank,-118.3140289,34.17638134
517,SCE,,CEC,SUBSTATION,305828,Aerojet,66,91702,CA,Los Angeles County,Azusa,-117.9249665,34.12515424
518,SCE,,CEC,SUBSTATION,308336,Airchem,,90266,CA,Los Angeles County,Manhattan Beach,-118.3916285,33.90161399
519,SCE,,CEC,SUBSTATION,300792,Bassett,66,91744,CA,Los Angeles County,Unincorporated,-117.9556304,34.04748128
520,SCE,,CEC,SUBSTATION,304857,Alhambra,66,91801,CA,Los Angeles County,Alhambra,-118.1490914,34.09126536
521,SCE,,CEC,SUBSTATION,307439,Alon,66,90745,CA,Los Angeles County,Carson,-118.2473837,33.8349536
522,SCE,,CEC,SUBSTATION,304533,Amador,66,91731,CA,Los Angeles County,El Monte,-118.0265504,34.07144828
523,SCE,,CEC,SUBSTATION,307425,Amco,,90504,CA,Los Angeles County,Torrance,-118.3217278,33.86143513
524,SCE,,CEC,SUBSTATION,301945,Anaverde,66,93551,CA,Los Angeles County,Palmdale,-118.147688,34.567506
525,SCE,,CEC,SUBSTATION,307809,Anita,66,91780,CA,Los Angeles County,Arcadia,-118.0384571,34.10562887
526,SCE,26,CEC,SUBSTATION,304120,Antelope,,93536,CA,Los Angeles County,Lancaster,-118.3005413,34.68751284
527,SCE,,CEC,SUBSTATION,305791,Appgen,,91321,CA,Los Angeles County,Santa Clarita,-118.5013428,34.38186113
528,PG&E,,CEC,SUBSTATION,300602,Live Oak,,93308,CA,Kern County,Unincorporated,-119.0094663,35.49595252
529,SCE,,CEC,SUBSTATION,301228,Arcadia,66,91006,CA,Los Angeles County,Arcadia,-118.025731,34.14413076
530,SCE,,CEC,SUBSTATION,306365,Arcogen,230,90745,CA,Los Angeles County,Carson,-118.2434772,33.81749482
531,SCE,,CEC,SUBSTATION,304040,Arroyo,66,91011,CA,Los Angeles County,La Cañada Flintridge,-118.1706118,34.19972227
532,SCE,,CEC,SUBSTATION,310163,Astro,66,90807,CA,Los Angeles County,Long Beach,-118.1643641,33.81920229
533,SCE,,CEC,SUBSTATION,308646,Belmont,66,90804,CA,Los Angeles County,Long Beach,-118.1498197,33.78133053
534,SCE,,CEC,SUBSTATION,301299,Azusa,66,91702,CA,Los Angeles County,Azusa,-117.9109461,34.13604586
535,SCE,,CEC,SUBSTATION,303949,Bailey,,93536,CA,Los Angeles County,Unincorporated,-118.7747156,34.77651193
536,SCE,,CEC,SUBSTATION,310504,Bandini,66,90040,CA,Los Angeles County,Vernon,-118.1712114,33.99961503
537,SCE,,CEC,SUBSTATION,303715,Industry,66,91746,CA,Los Angeles County,Industry,-117.9907761,34.05052838
538,SCE,,CEC,SUBSTATION,301340,Beejay,66,90058,CA,Los Angeles County,Vernon,-118.2275295,34.00810574
539,SCE,,CEC,SUBSTATION,301156,Beverly,66,90210,CA,Los Angeles County,Beverly Hills,-118.3973342,34.0731289
540,SCE,,CEC,SUBSTATION,306752,Boost,,90808,CA,Los Angeles County,Long Beach,-118.1405681,33.83038656
541,SCE,,CEC,SUBSTATION,308237,Bovine,66,90703,CA,Los Angeles County,Cerritos,-118.06401,33.85077402
542,SCE,,CEC,SUBSTATION,309752,Bowl,66,90806,CA,Los Angeles County,Long Beach,-118.1722789,33.79314877
543,SCE,,CEC,SUBSTATION,309905,Bradbury,66,91016,CA,Los Angeles County,Monrovia,-117.9872804,34.13379802
544,SCE,,CEC,SUBSTATION,301930,Downey,66,90241,CA,Los Angeles County,Downey,-118.1299057,33.93731568
545,SCE,,CEC,SUBSTATION,302376,Brew,66,91706,CA,Los Angeles County,Irwindale,-117.9398895,34.1271721
546,SCE,,CEC,SUBSTATION,306526,Bridge,66,90504,CA,Los Angeles County,Torrance,-118.3258829,33.88055076
547,SCE,,CEC,SUBSTATION,308249,Artesia,,90701,CA,Los Angeles County,Artesia,-118.0843086,33.86007925
548,SCE,,CEC,SUBSTATION,302164,Brighton,66,90249,CA,Los Angeles County,Gardena,-118.3118682,33.90252379
549,SCE,,CEC,SUBSTATION,302239,Broadway,66,90803,CA,Los Angeles County,Long Beach,-118.1520507,33.76697406
550,SCE,,CEC,SUBSTATION,301489,Bullis,66,90221,CA,Los Angeles County,Compton,-118.2062764,33.90011631
551,SCE,,CEC,SUBSTATION,300393,Calden,66,90002,CA,Los Angeles County,Unincorporated,-118.2322842,33.95650731
552,SCE,,CEC,SUBSTATION,307274,Cameron,66,90810,CA,Los Angeles County,Long Beach,-118.2169869,33.81936746
553,SCE,,CEC,SUBSTATION,303622,Carbogen,66,90813,CA,Los Angeles County,Long Beach,-118.229778,33.77486919
554,SCE,,CEC,SUBSTATION,301258,Carmenita,66,90670,CA,Los Angeles County,Santa Fe Springs,-118.047069,33.90319501
555,SCE,,CEC,SUBSTATION,303540,Carson,66,90220,CA,Los Angeles County,Unincorporated,-118.2169821,33.86398483
556,SCE,,CEC,SUBSTATION,300232,Center,,90650,CA,Los Angeles County,Norwalk,-118.1057546,33.92883001
557,SCE,,CEC,SUBSTATION,300978,Certified,66,90807,CA,Los Angeles County,Long Beach,-118.1716782,33.81660822
558,SCE,,CEC,SUBSTATION,309853,Dock,66,90802,CA,Los Angeles County,Long Beach,-118.2378628,33.75941402
559,SCE,,CEC,SUBSTATION,309501,Cherry,66,90813,CA,Los Angeles County,Long Beach,-118.1832932,33.77861447
560,SCE,,CEC,SUBSTATION,303344,Chevgen,66,90245,CA,Los Angeles County,El Segundo,-118.4141553,33.91260297
561,SCE,LADWP-S,CEC,SUBSTATION,303995,Citrus,66,91740,CA,Los Angeles County,Glendora,-117.8719909,34.11901471
562,SCE,,CEC,SUBSTATION,301594,Clark,66,90815,CA,Los Angeles County,Long Beach,-118.1071449,33.79574877
563,SCE,,CEC,SUBSTATION,300449,College,66,90840,CA,Los Angeles County,Long Beach,-118.1085203,33.78410009
564,SCE,,CEC,SUBSTATION,306694,Colorado,66,90404,CA,Los Angeles County,Santa Monica,-118.4721561,34.02561317
565,SCE,,CEC,SUBSTATION,307247,Commodore,66,90802,CA,Los Angeles County,Long Beach,-118.2203333,33.7568199
566,Other,,CEC,SUBSTATION,308605,Ybarra,66,90058,CA,Los Angeles County,Vernon,-118.2065258,34.00414636
567,SCE,,CEC,SUBSTATION,309439,Corners,66,90805,CA,Los Angeles County,Long Beach,-118.1653359,33.86341862
568,SCE,,CEC,SUBSTATION,307369,Cornuta,,90706,CA,Los Angeles County,Bellflower,-118.1203648,33.88369974
569,SCE,,CEC,SUBSTATION,303098,Cortez,66,91723,CA,Los Angeles County,Covina,-117.8795847,34.09258019
570,SCE,,CEC,SUBSTATION,306405,Cosmic,66,90250,CA,Los Angeles County,Hawthorne,-118.3187593,33.92406834
571,SCE,,CEC,SUBSTATION,301620,Crater,66,91301,CA,Los Angeles County,Unincorporated,-118.7149439,34.10697209
572,SCE,,CEC,SUBSTATION,309970,Crest,66,90275,CA,Los Angeles County,Rancho Palos Verdes,-118.3731939,33.76694457
573,SCE,,CEC,SUBSTATION,308436,Cryco,66,91746,CA,Los Angeles County,Industry,-117.9891722,34.05755342
574,SCE,,CEC,SUBSTATION,310167,Cudahy,66,90201,CA,Los Angeles County,Cudahy,-118.1942652,33.96384263
575,SCE,,CEC,SUBSTATION,300470,Culver,,90232,CA,Los Angeles County,Culver City,-118.40261,34.01457592
576,SCE,,CEC,SUBSTATION,305955,Dalton,66,91706,CA,Los Angeles County,Irwindale,-117.9336277,34.11389987
577,SCE,,CEC,SUBSTATION,302187,Del Amo,,90703,CA,Los Angeles County,Cerritos,-118.0968669,33.84773537
578,SCE,,CEC,SUBSTATION,303933,Del Sur,66,93536,CA,Los Angeles County,Lancaster,-118.2889766,34.71797092
579,SCE,,CEC,SUBSTATION,303677,Diamond Bar,66,91765,CA,Los Angeles County,Diamond Bar,-117.8112369,34.00294768
580,SCE,,CEC,SUBSTATION,306938,Dike,66,90802,CA,Los Angeles County,Long Beach,-118.2229677,33.76219353
581,SCE,,CEC,SUBSTATION,301303,Ditmar,66,90278,CA,Los Angeles County,Redondo Beach,-118.3779075,33.87232911
582,SCE,,CEC,SUBSTATION,304662,Domhill,66,90220,CA,Los Angeles County,Unincorporated,-118.2230313,33.86247615
583,SCE,,CEC,SUBSTATION,306091,Douglas,66,90245,CA,Los Angeles County,El Segundo,-118.3826717,33.92228339
584,SCE,,CEC,SUBSTATION,306971,Dougoil,66,90723,CA,Los Angeles County,Paramount,-118.1442684,33.89897697
585,SCE,,CEC,SUBSTATION,301558,Eagle Rock,,91206,CA,Los Angeles County,Glendale,-118.1843184,34.15085612
586,SCE,,CEC,SUBSTATION,310415,Eaton,,91107,CA,Los Angeles County,Pasadena,-118.0857225,34.16225829
587,SCE,,CEC,SUBSTATION,310204,El Nido,,90260,CA,Los Angeles County,Hawthorne,-118.3733221,33.8956586
588,SCE,,CEC,SUBSTATION,304039,Elizabeth Lake,66,91384,CA,Los Angeles County,Unincorporated,-118.6163972,34.49113968
589,SCE,,CEC,SUBSTATION,308401,Eric,66,90703,CA,Los Angeles County,Cerritos,-118.090471,33.87990599
590,SCE,,CEC,SUBSTATION,303277,Federalgen,66,90040,CA,Los Angeles County,Commerce,-118.1674461,33.98200388
591,SCE,,CEC,SUBSTATION,309156,Felton,66,90250,CA,Los Angeles County,Unincorporated,-118.3620587,33.91580073
592,SCE,,CEC,SUBSTATION,309116,Fernwood,66,90262,CA,Los Angeles County,Lynwood,-118.215484,33.92829702
593,SCE,,CEC,SUBSTATION,307600,Polypro,66,90745,CA,Los Angeles County,Carson,-118.2332985,33.82143255
594,SCE,,CEC,SUBSTATION,301304,MWD Foothill,66,91384,CA,Los Angeles County,Unincorporated,-118.6082972,34.51456388
595,SCE,,CEC,SUBSTATION,306190,Fruitland,66,90058,CA,Los Angeles County,Vernon,-118.226704,33.9959959
596,SCE,,CEC,SUBSTATION,308367,Fuel,,90802,CA,Los Angeles County,Long Beach,-118.2264825,33.76457726
597,SCE,,CEC,SUBSTATION,306536,Galaxy,,90266,CA,Los Angeles County,Manhattan Beach,-118.3828843,33.89928827
598,SCE,,CEC,SUBSTATION,308300,Gallatin,,90240,CA,Los Angeles County,Downey,-118.1113506,33.96155128
599,SCE,,CEC,SUBSTATION,309496,Pomona,,91766,CA,Los Angeles County,Pomona,-117.7552801,34.0582889
600,SCE,,CEC,SUBSTATION,300558,Ganesha,66,91766,CA,Los Angeles County,Pomona,-117.7756362,34.05753246
601,SCE,,CEC,SUBSTATION,308716,Garfield,66,91030,CA,Los Angeles County,Pasadena,-118.1498524,34.12496383
602,SCE,,CEC,SUBSTATION,307128,Gatx,66,90810,CA,Los Angeles County,Carson,-118.2331894,33.8073843
603,SCE,,CEC,SUBSTATION,303371,Goodrich,,91107,CA,Los Angeles County,Pasadena,-118.0879216,34.15135633
604,SCE,,CEC,SUBSTATION,306131,Gorman,66,93243,CA,Los Angeles County,Unincorporated,-118.8271055,34.79054444
605,SCE,,CEC,SUBSTATION,300829,Gould,,91011,CA,Los Angeles County,La Cañada Flintridge,-118.1869602,34.22148365
606,SCE,,CEC,SUBSTATION,304240,Ductile,66,91731,CA,Los Angeles County,El Monte,-118.0418247,34.08150219
607,SCE,,CEC,SUBSTATION,310533,Greening,66,90703,CA,Los Angeles County,Cerritos,-118.0474627,33.8810914
608,SCE,,CEC,SUBSTATION,304450,Harborgen,,90813,CA,Los Angeles County,Los Angeles,-118.2273175,33.77892913
609,SCE,,CEC,SUBSTATION,306242,Haskell,,91350,CA,Los Angeles County,Santa Clarita,-118.5152489,34.43870659
610,SCE,,CEC,SUBSTATION,304689,Hathaway,66,90815,CA,Los Angeles County,Long Beach,-118.1421862,33.79104783
611,SCE,,CEC,SUBSTATION,301323,Helijet,66,93550,CA,Los Angeles County,Palmdale,-118.1138639,34.61192881
612,SCE,,CEC,,301318,Hillgen,66,91745,CA,Los Angeles County,Unincorporated,-118.0250218,34.02427906
613,SCE,,CEC,SUBSTATION,300390,Hinson,230,90810,CA,Los Angeles County,Long Beach,-118.222539,33.81926898
614,SCE,,CEC,SUBSTATION,304354,Howard,66,90047,CA,Los Angeles County,Unincorporated,-118.3071692,33.92261915
615,SCE,,CEC,SUBSTATION,307087,Hughesair,66,90245,CA,Los Angeles County,El Segundo,-118.3918007,33.91171863
616,SCE,,CEC,SUBSTATION,303303,Hughtron,66,90505,CA,Los Angeles County,Torrance,-118.3404907,33.81046975
617,SCE,,CEC,SUBSTATION,306884,Imperial,66,90242,CA,Los Angeles County,Downey,-118.148285,33.911845
618,SCE,,CEC,RISER,301535,Unknown,66,91744,CA,Los Angeles County,Industry,-117.9677135,34.03341675
619,SCE,,CEC,SUBSTATION,310427,Inglewood,66,90302,CA,Los Angeles County,Inglewood,-118.3581035,33.96564841
620,SCE,,CEC,SUBSTATION,310201,Injection,66,90755,CA,Los Angeles County,Signal Hill,-118.1594037,33.80134174
621,SCE,,CEC,SUBSTATION,308207,Jersey,66,90220,CA,Los Angeles County,Carson,-118.2481891,33.8795048
622,SCE,,CEC,SUBSTATION,307594,Jet,,91001,CA,Los Angeles County,Pasadena,-118.1679679,34.21350946
623,SCE,LADWP-S,CEC,SUBSTATION,307564,Jose,,91746,CA,Los Angeles County,Unincorporated,-118.0255447,34.03710332
624,SCE,,CEC,,,Kinetic,230,90023,CA,Los Angeles County,Los Angeles,-118.2035779,34.01497467
625,SCE,,CEC,SUBSTATION,303005,La Canada,66,91011,CA,Los Angeles County,La Cañada Flintridge,-118.2104934,34.20527032
626,SCE,,CEC,SUBSTATION,308786,La Cienega,,90056,CA,Los Angeles County,Unincorporated,-118.378327,34.000738
627,SCE,,CEC,SUBSTATION,306844,La Fresa,,90504,CA,Los Angeles County,Torrance,-118.3328428,33.86974237
628,SCE,,CEC,SUBSTATION,306369,La Mirada,66,90638,CA,Los Angeles County,La Mirada,-118.0144049,33.88863032
629,SCE,,CEC,SUBSTATION,306060,Laguna Bell,,90040,CA,Los Angeles County,Commerce,-118.1478739,33.97589882
630,SCE,,CEC,SUBSTATION,306224,Lakewood,66,90808,CA,Los Angeles County,Long Beach,-118.124653,33.83024406
631,SCE,,CEC,SUBSTATION,306426,Lancaster,66,93534,CA,Los Angeles County,Lancaster,-118.1456041,34.70049983
632,Other,,CEC,SUBSTATION,306598,Lanpri,66,93536,CA,Los Angeles County,Lancaster,-118.2284922,34.6906835
633,SCE,,CEC,SUBSTATION,305865,Lark Ellen,66,91722,CA,Los Angeles County,Covina,-117.9264289,34.08708686
634,SCE,,CEC,SUBSTATION,307368,Latigo,66,90265,CA,Los Angeles County,Unincorporated,-118.7761002,34.04483575
635,SCE,,CEC,SUBSTATION,304618,Layfair,66,91768,CA,Los Angeles County,Pomona,-117.7697035,34.0899808
636,SCE,,CEC,SUBSTATION,304630,Lennox,66,90304,CA,Los Angeles County,Unincorporated,-118.3473626,33.94225454
637,Other,,CEC,SUBSTATION,310295,Owill,66,90058,CA,Los Angeles County,Vernon,-118.217888,33.9976075
638,SCE,,CEC,SUBSTATION,303169,Lighthipe,,90805,CA,Los Angeles County,Long Beach,-118.1750339,33.88057686
639,SCE,LADWP-S,CEC,SUBSTATION,301331,Liquid,66,91706,CA,Los Angeles County,Irwindale,-117.9318568,34.11185469
640,SCE,,CEC,SUBSTATION,304724,Little Rock,66,93591,CA,Los Angeles County,Unincorporated,-117.9689511,34.61620142
641,SCE,,CEC,SUBSTATION,306072,Live Oak,66,91711,CA,Los Angeles County,Claremont,-117.731895,34.12116598
642,SCE,,CEC,SUBSTATION,300965,Los Cerritos,66,90806,CA,Los Angeles County,Long Beach,-118.1905088,33.8112755
643,SCE,,CEC,SUBSTATION,309722,Losulfur,,90045,CA,Los Angeles County,Los Angeles,-118.4044994,33.93180519
644,SCE,,CEC,SUBSTATION,303671,Lucas,,90713,CA,Los Angeles County,Lakewood,-118.1205988,33.84235695
645,SCE,,CEC,SUBSTATION,309898,Macneil,66,91505,CA,Los Angeles County,Burbank,-118.347163,34.17219306
646,SCE,,CEC,,,Main Oil,,90802,CA,Los Angeles County,Long Beach,-118.2276041,33.76399887
647,SCE,,CEC,SUBSTATION,308551,Malibu,66,91301,CA,Los Angeles County,Agoura Hills,-118.7614645,34.1475568
648,SCE,,CEC,SUBSTATION,301795,Marine,,90405,CA,Los Angeles County,Santa Monica,-118.4656902,34.00698276
649,SCE,,CEC,SUBSTATION,307779,Marymount,66,90275,CA,Los Angeles County,Rancho Palos Verdes,-118.38898,33.747174
650,SCE,,CEC,SUBSTATION,309821,Rivera,66,90660,CA,Los Angeles County,Pico Rivera,-118.1013564,33.96958134
651,SCE,,CEC,SUBSTATION,300554,Merced,66,91791,CA,Los Angeles County,West Covina,-117.9072064,34.04972528
652,SCE,,CEC,SUBSTATION,301541,Mesa,,91755,CA,Los Angeles County,Monterey Park,-118.1104702,34.03726282
653,SCE,,CEC,,,Mobgen,,90503,CA,Los Angeles County,Torrance,-118.3356067,33.85348082
654,SCE,,CEC,SUBSTATION,308806,Mobil Oil,,90503,CA,Los Angeles County,Torrance,-118.3329564,33.85707385
655,SCE,,CEC,SUBSTATION,302941,Murphy,66,90602,CA,Los Angeles County,Unincorporated,-118.043106,33.95442599
656,SCE,,CEC,SUBSTATION,300235,Narrows,66,90660,CA,Los Angeles County,Pico Rivera,-118.0668355,34.00500608
657,SCE,,CEC,SUBSTATION,307683,Navy Mole,66,90802,CA,Los Angeles County,Long Beach,-118.228565,33.74227238
658,SCE,,CEC,SUBSTATION,301949,Navy-1,,90802,CA,Los Angeles County,Long Beach,-118.219192,33.76395201
659,SCE,,CEC,SUBSTATION,303903,Neenach,66,93536,CA,Los Angeles County,Unincorporated,-118.5014361,34.77510559
660,SCE,,CEC,SUBSTATION,303695,Neptune,66,90745,CA,Los Angeles County,Carson,-118.2684007,33.82735334
661,SCE,,CEC,SUBSTATION,308907,Newmark,,91754,CA,Los Angeles County,Monterey Park,-118.1291485,34.04557089
662,SCE,,CEC,SUBSTATION,310019,Newhall,66,91355,CA,Los Angeles County,Santa Clarita,-118.55917,34.37921299
663,SCE,,CEC,SUBSTATION,301517,Nogales,,91789,CA,Los Angeles County,Industry,-117.8552914,34.00676088
664,SCE,,CEC,SUBSTATION,300008,Nola,,90248,CA,Los Angeles County,Carson,-118.2763265,33.85951472
665,SCE,,CEC,SUBSTATION,303988,North Oaks,66,91387,CA,Los Angeles County,Santa Clarita,-118.4527486,34.41563081
666,SCE,,CEC,SUBSTATION,310499,Oasis,66,93550,CA,Los Angeles County,Palmdale,-118.094864,34.64671235
667,SCE,,CEC,SUBSTATION,306279,Olinda,,91748,CA,Los Angeles County,Unincorporated,-117.9223101,33.94627279
668,SCE,,CEC,SUBSTATION,300582,Oso,66,93536,CA,Los Angeles County,Unincorporated,-118.7192917,34.80844445
669,SCE,,CEC,,,Owill,,90012,CA,Los Angeles County,Los Angeles,-118.231275,34.05002232
670,SCE,,CEC,SUBSTATION,307232,Package,66,91746,CA,Los Angeles County,Industry,-117.9767578,34.03454683
671,SCE,,CEC,SUBSTATION,307617,Pacline,66,90810,CA,Los Angeles County,Carson,-118.2338731,33.8460286
672,SCE,,CEC,SUBSTATION,301132,Palmdale,66,93550,CA,Los Angeles County,Palmdale,-118.0591861,34.5660542
673,SCE,,CEC,SUBSTATION,301215,Palogen,66,90274,CA,Los Angeles County,Rolling Hills Estates,-118.349233,33.79329009
674,LADWP,,CEC,SUBSTATION,309730,Castaic,230,91384,CA,Los Angeles County,Unincorporated,-118.6573695,34.58749446
675,SCE,,CEC,SUBSTATION,308504,Pardee,,91355,CA,Los Angeles County,Santa Clarita,-118.5828361,34.43927044
676,SCE,,CEC,SUBSTATION,307499,Passons,66,90670,CA,Los Angeles County,Santa Fe Springs,-118.082148,33.96420598
677,SCE,,CEC,SUBSTATION,300583,Pearblossom,,93553,CA,Los Angeles County,Unincorporated,-117.9196821,34.50906959
678,SCE,,CEC,SUBSTATION,308263,Pico,66,90802,CA,Los Angeles County,Long Beach,-118.2066567,33.76508981
679,SCE,,CEC,SUBSTATION,301243,Pioneer,66,90650,CA,Los Angeles County,Norwalk,-118.0811489,33.91557578
680,SCE,,CEC,SUBSTATION,305070,Pitchgen,,91384,CA,Los Angeles County,Unincorporated,-118.5941936,34.46359424
681,SCE,,CEC,SUBSTATION,306168,Piute,66,93535,CA,Los Angeles County,Unincorporated,-117.9693728,34.69065568
682,SCE,,CEC,SUBSTATION,305909,Polaris,,90245,CA,Los Angeles County,El Segundo,-118.3897191,33.92870414
683,SCE,,CEC,SUBSTATION,304338,Tidelands,66,90802,CA,Los Angeles County,Long Beach,-118.2078277,33.76483111
684,SCE,,CEC,SUBSTATION,309408,Powerine,66,90670,CA,Los Angeles County,Santa Fe Springs,-118.0677468,33.93499107
685,SCE,,CEC,SUBSTATION,308255,Procal,66,90670,CA,Los Angeles County,Santa Fe Springs,-118.0656099,33.95856507
686,SCE,,CEC,SUBSTATION,301131,Proctor,66,91745,CA,Los Angeles County,Industry,-117.969048,34.02187025
687,SCE,,CEC,SUBSTATION,300408,Puente,66,91748,CA,Los Angeles County,Industry,-117.9304235,34.00901094
688,Other,,CEC,SUBSTATION,301614,Leonis,66,90058,CA,Los Angeles County,Vernon,-118.2060902,33.99797748
689,SCE,,CEC,SUBSTATION,305829,Quartz Hill,66,93536,CA,Los Angeles County,Lancaster,-118.2282903,34.6595412
690,SCE,,CEC,SUBSTATION,304779,Railroad,66,91748,CA,Los Angeles County,Industry,-117.887703,33.99710378
691,SCE,,CEC,SUBSTATION,302401,Ramona,66,91803,CA,Los Angeles County,Alhambra,-118.1300281,34.06991918
692,SCE,,CEC,SUBSTATION,309483,Randolph,66,90255,CA,Los Angeles County,Huntington Park,-118.205316,33.98271475
693,SCE,,CEC,SUBSTATION,304811,Ravendale,66,91775,CA,Los Angeles County,Unincorporated,-118.0810745,34.12177523
694,SCE,,CEC,SUBSTATION,306762,Redman,66,93535,CA,Los Angeles County,Unincorporated,-117.969417,34.76318367
695,SCE,,CEC,SUBSTATION,307456,Refinery,66,90745,CA,Los Angeles County,Carson,-118.2442872,33.83959608
696,SCE,,CEC,SUBSTATION,306370,Refuse,66,90040,CA,Los Angeles County,Commerce,-118.1527794,33.99456583
697,SCE,,CEC,SUBSTATION,301479,Reno,,90601,CA,Los Angeles County,Unincorporated,-118.0241902,34.03444747
698,SCE,,CEC,SUBSTATION,302798,Repetto,66,91754,CA,Los Angeles County,Monterey Park,-118.1621853,34.04794252
699,SCE,,CEC,SUBSTATION,300754,Repro,,90245,CA,Los Angeles County,El Segundo,-118.3794564,33.90338589
700,SCE,,CEC,SUBSTATION,308629,Revital,66,90805,CA,Los Angeles County,Long Beach,-118.1619319,33.86303482
701,SCE,,CEC,SUBSTATION,305984,Rio Hondo,,91706,CA,Los Angeles County,Irwindale,-117.9807996,34.10513457
702,SCE,,CEC,SUBSTATION,304914,Rockair,66,93550,CA,Los Angeles County,Palmdale,-118.0732689,34.61032551
703,SCE,,CEC,SUBSTATION,308216,Rolling Hills,66,90505,CA,Los Angeles County,Torrance,-118.3550087,33.8083703
704,SCE,,CEC,SUBSTATION,307557,Rosecrans,,90245,CA,Los Angeles County,El Segundo,-118.3978447,33.90315404
705,SCE,,CEC,SUBSTATION,300648,Rosemead,66,91770,CA,Los Angeles County,Rosemead,-118.0826588,34.09221847
706,SCE,,CEC,SUBSTATION,309685,Rush,66,91770,CA,Los Angeles County,Rosemead,-118.0813473,34.05121845
707,SCE,,CEC,SUBSTATION,305598,San Dimas,66,91773,CA,Los Angeles County,San Dimas,-117.807819,34.11718102
708,SCE,,CEC,SUBSTATION,301416,San Gabriel,66,91776,CA,Los Angeles County,San Gabriel,-118.1001833,34.0986988
709,SCE,,CEC,SUBSTATION,300601,Sanitreat,,90710,CA,Los Angeles County,Los Angeles,-118.298972,33.80703817
710,SCE,,CEC,SUBSTATION,309160,Santa Fe Springs,66,90670,CA,Los Angeles County,Santa Fe Springs,-118.058548,33.948067
711,SCE,,CEC,SUBSTATION,301842,Santa Monica,,90401,CA,Los Angeles County,Santa Monica,-118.4881591,34.01725703
712,SCE,,CEC,SUBSTATION,300427,Saugus,,91355,CA,Los Angeles County,Santa Clarita,-118.5758268,34.42198651
713,SCE,,CEC,SUBSTATION,302171,Sawtelle,66,90025,CA,Los Angeles County,Unincorporated,-118.4521968,34.04746172
714,SCE,,CEC,SUBSTATION,304121,Seabright,66,90802,CA,Los Angeles County,Long Beach,-118.203535,33.77253096
715,SCE,,CEC,SUBSTATION,301543,Sepulveda,,90245,CA,Los Angeles County,El Segundo,-118.3966925,33.91903805
716,SCE,,CEC,SUBSTATION,303547,Serfgen,66,90802,CA,Los Angeles County,Long Beach,-118.2411524,33.75936694
717,SCE,,CEC,SUBSTATION,300950,Shellwatt,66,90745,CA,Los Angeles County,Carson,-118.2439987,33.80757585
718,SCE,,CEC,SUBSTATION,307517,Shuttle,66,93551,CA,Los Angeles County,Unincorporated,-118.165005,34.64275724
719,SCE,,CEC,SUBSTATION,309348,Signal Hill,66,90755,CA,Los Angeles County,Signal Hill,-118.1682108,33.81143827
720,SCE,,CEC,SUBSTATION,307634,Simpson,66,91768,CA,Los Angeles County,Pomona,-117.7738664,34.05950958
721,SCE,,CEC,SUBSTATION,304848,Solemint,66,91351,CA,Los Angeles County,Unincorporated,-118.4225889,34.45187222
722,SCE,,CEC,SUBSTATION,306947,Somerset,66,90706,CA,Los Angeles County,Bellflower,-118.1429767,33.87420269
723,SCE,,CEC,SUBSTATION,306976,Sopipe,66,91789,CA,Los Angeles County,Industry,-117.8370753,34.02223836
724,SCE,LADWP-S,CEC,SUBSTATION,306001,San Dimas Power,66,91773,CA,Los Angeles County,San Dimas,-117.7954723,34.12748897
725,SCE,,CEC,SUBSTATION,307472,Space,,90278,CA,Los Angeles County,Redondo Beach,-118.3750106,33.89140933
726,SCE,LADWP-S,CEC,SUBSTATION,302869,Sponge,66,90660,CA,Los Angeles County,Pico Rivera,-118.111255,33.98084795
727,LADWP,,CEC,SUBSTATION,305885,La Brea,,90056,CA,Los Angeles County,Unincorporated,-118.3593892,33.98918354
728,SCE,,CEC,SUBSTATION,307623,State Street,66,90806,CA,Los Angeles County,Long Beach,-118.1987019,33.79018782
729,SCE,,CEC,SUBSTATION,306839,Stewart,66,90241,CA,Los Angeles County,Downey,-118.1405091,33.94007948
730,SCE,,CEC,SUBSTATION,303783,Oldfield,66,90807,CA,Los Angeles County,Long Beach,-118.1771048,33.84618126
731,SCE,,CEC,SUBSTATION,307239,Universal Studios A,66,91608,CA,Los Angeles County,Unincorporated,-118.359135,34.14300113
732,SCE,,CEC,SUBSTATION,302233,Sunnyside,66,90712,CA,Los Angeles County,Lakewood,-118.1670673,33.85318463
733,SCE,,CEC,SUBSTATION,309663,Tahiti,,90292,CA,Los Angeles County,Unincorporated,-118.4369287,33.97776042
734,SCE,,CEC,SUBSTATION,303901,Rindge,,90265,CA,Los Angeles County,Malibu,-118.697951,34.03956
735,SCE,,CEC,SUBSTATION,300961,Telegraph,66,90604,CA,Los Angeles County,Whittier,-117.9920328,33.93233405
736,SCE,,CEC,SUBSTATION,303248,Tengen,,91321,CA,Los Angeles County,Santa Clarita,-118.4955308,34.38417581
737,SCE,,CEC,SUBSTATION,305780,Thermal,66,90245,CA,Los Angeles County,El Segundo,-118.4096022,33.91601025
738,SCE,,CEC,,,Thums A,,90802,CA,Los Angeles County,Long Beach,-118.1815528,33.75932193
739,SCE,,CEC,,,Thums B,,90803,CA,Los Angeles County,Long Beach,-118.1595213,33.7527597
740,SCE,,CEC,,,Thums C,,90803,CA,Los Angeles County,Long Beach,-118.1388919,33.73977206
741,SCE,,CEC,,,Thums D,,90803,CA,Los Angeles County,Long Beach,-118.1625833,33.74132686
742,SCE,,CEC,SUBSTATION,307074,Topaz,66,90277,CA,Los Angeles County,Redondo Beach,-118.3765776,33.82781208
743,SCE,,CEC,SUBSTATION,308471,Torrance,66,90503,CA,Los Angeles County,Torrance,-118.344309,33.82984666
744,SCE,,CEC,SUBSTATION,301996,Tortoise,66,93550,CA,Los Angeles County,Palmdale,-118.0658871,34.64068536
745,SCE,,CEC,SUBSTATION,303710,Toyota,66,90805,CA,Los Angeles County,Long Beach,-118.1603338,33.87280461
746,SCE,,CEC,SUBSTATION,302297,Trisonic,66,90245,CA,Los Angeles County,El Segundo,-118.3855839,33.92131535
747,SCE,,CEC,SUBSTATION,308289,Trophy,66,91789,CA,Los Angeles County,Pomona,-117.8181737,34.041376
748,SCE,,CEC,SUBSTATION,310026,Linden,,90805,CA,Los Angeles County,Long Beach,-118.185589,33.8591492
749,SCE,,CEC,SUBSTATION,300916,Universal Studios (Studio Master),66,91608,CA,Los Angeles County,Unincorporated,-118.3573966,34.14297885
750,SCE,,CEC,SUBSTATION,308225,Vail,66,90040,CA,Los Angeles County,Commerce,-118.1278159,34.00677528
751,SCE,,CEC,SUBSTATION,307407,Valdez,66,91302,CA,Los Angeles County,Calabasas,-118.6317992,34.14776836
752,SCE,,CEC,SUBSTATION,308325,Venice,66,90066,CA,Los Angeles County,Los Angeles,-118.4209425,33.99033882
753,Other,,CEC,SUBSTATION,306450,Vernon,66,90058,CA,Los Angeles County,Vernon,-118.2201768,33.9984558
754,SCE,,CEC,SUBSTATION,305084,Victoria,66,90278,CA,Los Angeles County,Redondo Beach,-118.3742046,33.85885406
755,SCE,,CEC,SUBSTATION,307559,Air Products,66,90810,CA,Los Angeles County,Carson,-118.2320643,33.81251186
756,SCE,"26, LADWP-N",CEC,SUBSTATION,309672,Vincent,500,93550,CA,Los Angeles County,Unincorporated,-118.1184808,34.48596597
757,SCE,,CEC,SUBSTATION,307785,Wabash,66,90063,CA,Los Angeles County,Unincorporated,-118.1864239,34.0451314
758,SCE,,CEC,SUBSTATION,301894,Walteria,,90717,CA,Los Angeles County,Lomita,-118.323487,33.79195901
759,SCE,,CEC,SUBSTATION,308917,Warne,,93243,CA,Los Angeles County,Unincorporated,-118.7885538,34.68507479
760,SCE,,CEC,SUBSTATION,308332,Watson,66,90745,CA,Los Angeles County,Carson,-118.2617246,33.80809399
761,SCE,,CEC,,,Webco,,90723,CA,Los Angeles County,Paramount,-118.1650265,33.88362248
762,SCE,,CEC,SUBSTATION,306268,Westex,66,90755,CA,Los Angeles County,Signal Hill,-118.175932,33.81138697
763,SCE,,CEC,SUBSTATION,305751,Westhill,66,90245,CA,Los Angeles County,El Segundo,-118.4203523,33.90929415
764,SCE,,CEC,SUBSTATION,301327,Nietos,66,90670,CA,Los Angeles County,Santa Fe Springs,-118.0610011,33.93890622
765,SCE,,CEC,SUBSTATION,300208,Wilsona,66,93591,CA,Los Angeles County,Unincorporated,-117.7197077,34.5793131
766,SCE,,CEC,SUBSTATION,301745,Windsor Hills,,90056,CA,Los Angeles County,Unincorporated,-118.3591999,33.99600543
767,SCE,,CEC,SUBSTATION,309758,Yukon,66,90250,CA,Los Angeles County,Hawthorne,-118.3345922,33.91887059
768,Other,,CEC,SUBSTATION,310514,Glass,,93637,CA,Madera County,Unincorporated,-120.1032155,36.92801165
769,PG&E,,CEC,SUBSTATION,309107,Bonita,70,93637,CA,Madera County,Unincorporated,-120.2015797,36.92391824
770,PG&E,,CEC,SUBSTATION,300350,Borden,,93636,CA,Madera County,Unincorporated,-119.984616,36.92214301
771,Other,,CEC,SUBSTATION,301104,Sjve Madera,115,93622,CA,Madera County,Unincorporated,-120.3387028,36.86081121
772,PG&E,,CEC,SUBSTATION,309400,Capco,115,93610,CA,Madera County,Chowchilla,-120.2483191,37.10859212
773,PG&E,,CEC,SUBSTATION,300520,Cassidy,70,93636,CA,Madera County,Unincorporated,-119.812659,36.92353502
774,Other,,CEC,SUBSTATION,304940,Certainteed,115,93610,CA,Madera County,Chowchilla,-120.2286273,37.09320918
775,PG&E,,CEC,SUBSTATION,302015,Chowchilla,115,93610,CA,Madera County,Chowchilla,-120.2505847,37.12056169
776,PG&E,,CEC,SUBSTATION,309550,Coarsegold,115,93614,CA,Madera County,Unincorporated,-119.6907452,37.22747611
777,PG&E,,CEC,SUBSTATION,304474,Dairyland,115,93610,CA,Madera County,Unincorporated,-120.3167429,37.05491545
778,PG&E,,CEC,SUBSTATION,307534,El Peco,70,93637,CA,Madera County,Unincorporated,-120.1644258,36.88073634
779,PG&E,H4,CEC,SUBSTATION,306523,Gregg,230,93636,CA,Madera County,Unincorporated,-119.9170804,36.85280964
780,Other,,CEC,SUBSTATION,309518,Madera,70,93637,CA,Madera County,Unincorporated,-120.055387,36.92350064
781,PG&E,,CEC,SUBSTATION,303680,Newhall,115,93622,CA,Madera County,Unincorporated,-120.3280422,36.86696374
782,PG&E,,CEC,SUBSTATION,300943,Oakhurst,115,93644,CA,Madera County,Unincorporated,-119.6343316,37.32195436
783,PG&E,,CEC,SUBSTATION,300642,Sharon,115,93610,CA,Madera County,Chowchilla,-120.1571839,37.09782628
784,PG&E,15,CEC,SUBSTATION,305900,Storey,230,93638,CA,Madera County,Unincorporated,-120.0335838,36.98314216
785,Other,,CEC,,,Norby Lumber Co Inc.,,93636,CA,Madera County,Unincorporated,-119.9753746,36.92207055
786,Other,H15,CEC,SUBSTATION,301116,Yanke,60,93643,CA,Madera County,Unincorporated,-119.5193539,37.25388795
787,PG&E,,CEC,SUBSTATION,309445,Hamilton Wetlands,,94949,CA,Marin County,Unincorporated,-122.52581,38.07814448
788,PG&E,,CEC,SUBSTATION,309515,Alto,,94941,CA,Marin County,Mill Valley,-122.5246062,37.89862751
789,PG&E,,CEC,SUBSTATION,306591,Bolinas,60,94924,CA,Marin County,Unincorporated,-122.706149,37.94121202
790,PG&E,,CEC,SUBSTATION,306642,Greenbrae,60,94904,CA,Marin County,Larkspur,-122.5141976,37.9378727
791,PG&E,North Bay,CEC,SUBSTATION,301273,Ignacio,230,94945,CA,Marin County,Novato,-122.5405637,38.0769286
792,PG&E,,CEC,SUBSTATION,301737,Las Gallinas,115,94903,CA,Marin County,San Rafael,-122.5379407,38.02243333
793,PG&E,,CEC,SUBSTATION,301879,Novato,60,94945,CA,Marin County,Novato,-122.5682432,38.1086144
794,PG&E,,CEC,SUBSTATION,305048,Olema,60,94946,CA,Marin County,Unincorporated,-122.7864522,38.04217884
795,PG&E,,CEC,SUBSTATION,304047,San Rafael,115,94901,CA,Marin County,San Rafael,-122.527216,37.97057815
796,PG&E,,CEC,SUBSTATION,309771,Sausalito,,94965,CA,Marin County,Sausalito,-122.4988508,37.86356846
797,PG&E,,CEC,SUBSTATION,303414,Stafford,60,94945,CA,Marin County,Novato,-122.6140151,38.11991639
798,PG&E,,CEC,SUBSTATION,303383,Tocaloma,60,94946,CA,Marin County,Unincorporated,-122.7598631,38.05486443
799,PG&E,,CEC,SUBSTATION,302127,Woodacre,60,94973,CA,Marin County,Unincorporated,-122.6536699,38.01206226
800,PG&E,L2,CEC,SUBSTATION,306034,Bear Valley,70,95338,CA,Mariposa County,Unincorporated,-120.1255417,37.5864556
801,PG&E,L2,CEC,SUBSTATION,307424,Indian Flat,70,95318,CA,Mariposa County,Unincorporated,-119.8412278,37.66479448
802,PG&E,,CEC,SUBSTATION,306788,Big River,60,95460,CA,Mendocino County,Unincorporated,-123.7865408,39.31141158
803,PG&E,,CEC,SUBSTATION,304154,Calpella,115,95482,CA,Mendocino County,Unincorporated,-123.1924181,39.19724966
804,PG&E,,CEC,SUBSTATION,304661,Covelo,60,95428,CA,Mendocino County,Unincorporated,-123.248547,39.78611628
805,PG&E,,CEC,SUBSTATION,307713,Elk,60,95432,CA,Mendocino County,Unincorporated,-123.711735,39.12926005
806,PG&E,,CEC,SUBSTATION,302817,Fort Bragg,60,95437,CA,Mendocino County,Fort Bragg,-123.799384,39.4348293
807,PG&E,,CEC,SUBSTATION,303227,Garcia,60,95468,CA,Mendocino County,Unincorporated,-123.5508711,38.88919144
808,PG&E,,CEC,SUBSTATION,306952,Gualala,60,95445,CA,Mendocino County,Unincorporated,-123.5220977,38.78617978
809,PG&E,,CEC,SUBSTATION,308337,Hopland,,95449,CA,Mendocino County,Unincorporated,-123.0811218,38.97279314
810,PG&E,,CEC,SUBSTATION,310416,Laytonville,60,95454,CA,Mendocino County,Unincorporated,-123.477223,39.68458651
811,Other,,CEC,,,Masonite,,95482,CA,Mendocino County,Unincorporated,-123.2056911,39.17375327
812,PG&E,,CEC,SUBSTATION,300881,Mendocino,115,95470,CA,Mendocino County,Unincorporated,-123.1963906,39.25048353
813,PG&E,,CEC,SUBSTATION,310515,Philo,60,95466,CA,Mendocino County,Unincorporated,-123.4379281,39.06398274
814,PG&E,,CEC,SUBSTATION,304767,Point Arena,60,95468,CA,Mendocino County,Point Arena,-123.679924,38.9122899
815,PG&E,,CEC,SUBSTATION,300355,Ukiah,115,95482,CA,Mendocino County,Unincorporated,-123.1918149,39.14314957
816,Other,,CEC,SUBSTATION,306094,Arburua,,93635,CA,Merced County,Unincorporated,-120.9221407,36.94045747
817,PG&E,,CEC,SUBSTATION,308513,Gallo,115,95334,CA,Merced County,Unincorporated,-120.8095195,37.37941115
818,Other,,CEC,SUBSTATION,308475,GE3,,93635,CA,Merced County,Unincorporated,-120.9076579,36.99874307
819,PG&E,,CEC,SUBSTATION,300625,Mercy Springs,,93635,CA,Merced County,Unincorporated,-120.8194868,36.93681162
820,Other,,CEC,SUBSTATION,304503,Castle ,115,95301,CA,Merced County,Unincorporated,-120.56272,37.361359
821,PG&E,,CEC,SUBSTATION,309828,Atwater,115,95301,CA,Merced County,Atwater,-120.6146848,37.36010094
822,PG&E,,CEC,SUBSTATION,306769,Canal,,93635,CA,Merced County,Los Banos,-120.8355639,37.06633333
823,Other,,CEC,SUBSTATION,301635,Sjve El Nido,60,95341,CA,Merced County,Unincorporated,-120.4901943,37.18636395
824,PG&E,,CEC,SUBSTATION,300511,Cressey,115,95388,CA,Merced County,Unincorporated,-120.6385277,37.42846952
825,PG&E,,CEC,SUBSTATION,308744,International Turbine Research,115,93635,CA,Merced County,Unincorporated,-121.1950278,37.04729946
826,Other,,CEC,SUBSTATION,307590,Dos Amigos,,93635,CA,Merced County,Unincorporated,-120.8297334,36.92521123
827,PG&E,,CEC,SUBSTATION,300559,Dos Palos,,93620,CA,Merced County,Unincorporated,-120.635217,36.97476896
828,PG&E,,CEC,SUBSTATION,303057,El Capitan,115,95348,CA,Merced County,Unincorporated,-120.5054698,37.33585104
829,PG&E,,CEC,SUBSTATION,300501,El Nido,115,95317,CA,Merced County,Unincorporated,-120.4726973,37.12063345
830,PG&E,,CEC,SUBSTATION,301936,Gustine,60,95322,CA,Merced County,Unincorporated,-121.0130417,37.25323614
831,PG&E,15,CEC,SUBSTATION,309218,Le Grand,115,95333,CA,Merced County,Unincorporated,-120.2739551,37.18497687
832,PG&E,,CEC,SUBSTATION,303565,Livingston,,95334,CA,Merced County,Unincorporated,-120.760391,37.36342702
833,PG&E,,CEC,SUBSTATION,303908,Merced,115,95341,CA,Merced County,Unincorporated,-120.487239,37.273308
834,PG&E,,CEC,SUBSTATION,300617,Merced Falls,69,95369,CA,Merced County,Unincorporated,-120.3303445,37.52319174
835,PG&E,,CEC,SUBSTATION,310412,Ortiga,,93635,CA,Merced County,Unincorporated,-120.8194891,36.98352226
836,Other,,CEC,SUBSTATION,306240,Pioneer,115,95334,CA,Merced County,Livingston,-120.7269167,37.39739717
837,PG&E,,CEC,SUBSTATION,303062,Santa Nella,,93635,CA,Merced County,Unincorporated,-121.0132255,37.08584186
838,PG&E,,CEC,SUBSTATION,301550,Santa Rita,,93620,CA,Merced County,Unincorporated,-120.6339944,37.0546472
839,PG&E,15,CEC,SUBSTATION,307365,Wilson,230,95340,CA,Merced County,Merced,-120.4071739,37.29339509
840,PG&E,"15X,15",CEC,SUBSTATION,310440,Los Banos,500,95322,CA,Merced County,Unincorporated,-121.0211026,37.05351312
841,PCORP,,CEC,SUBSTATION,309778,Clear Lake,69,96108,CA,Modoc County,Unincorporated,-121.2765623,41.70474169
842,Other,,CEC,SUBSTATION,306796,Warner,230,96101,CA,Modoc County,Unincorporated,-120.5330078,41.50074034
843,Other,,CEC,SUBSTATION,300660,Adin,69,96054,CA,Modoc County,Unincorporated,-120.9421348,41.20075251
844,Other,,CEC,SUBSTATION,304640,Cedarville,69,96104,CA,Modoc County,Unincorporated,-120.1820013,41.53151534
845,Other,,CEC,SUBSTATION,201127,Davis Creek,115,96108,CA,Modoc County,Unincorporated,-120.3669055,41.73313546
846,Other,,CEC,SUBSTATION,307018,Eagleville,69,96104,CA,Modoc County,Unincorporated,-120.1183377,41.33352935
847,Other,,CEC,SUBSTATION,308236,Fort Bidwell,69,96112,CA,Modoc County,Unincorporated,-120.1677978,41.8458161
848,Other,,CEC,SUBSTATION,304321,Likely,69,96116,CA,Modoc County,Unincorporated,-120.5053672,41.23045791
849,Other,,CEC,SUBSTATION,308359,Lookout,69,96054,CA,Modoc County,Unincorporated,-121.1380763,41.2076197
850,PCORP,,CEC,SUBSTATION,306530,Alturas,230,96101,CA,Modoc County,Unincorporated,-120.5334671,41.4998644
851,Other,,CEC,SUBSTATION,309135,Canby 2,,96015,CA,Modoc County,Unincorporated,-120.8809624,41.44490566
852,Other,,CEC,SUBSTATION,307356,Goose Lake,69,96101,CA,Modoc County,Unincorporated,-120.5859657,41.48795915
853,PCORP,,CEC,SUBSTATION,202645,Newell,69,96134,CA,Modoc County,Unincorporated,-121.378287,41.88812878
854,PCORP,,CEC,SUBSTATION,304892,Perez,69,96015,CA,Modoc County,Unincorporated,-121.2264898,41.63312677
855,PCORP,,CEC,SUBSTATION,202617,Tulelake,69,96134,CA,Siskiyou County,Unincorporated,-121.4714225,41.95336386
856,SCE,L1,CEC,SUBSTATION,300654,Casa Diablo,115,93546,CA,Mono County,Unincorporated,-118.916775,37.64909166
857,SCE,L1,CEC,SUBSTATION,300369,Lee Vining,115,93541,CA,Mono County,Unincorporated,-119.1164556,37.9521
858,SCE,L1,CEC,SUBSTATION,309902,Lundy,55,93541,CA,Mono County,Unincorporated,-119.1719091,38.0427411
859,SCE,L1,CEC,SUBSTATION,306680,Sherwin,115,93514,CA,Mono County,Unincorporated,-118.6747361,37.56001389
860,SCE,,CEC,SUBSTATION,301888,Zack,55,93514,CA,Mono County,Unincorporated,-118.3971013,37.61530645
861,PG&E,,CEC,SUBSTATION,306341,Texaco,,93450,CA,Monterey County,Unincorporated,-120.8635778,35.95856112
862,Other,,CEC,SUBSTATION,308810,Basic Vegetable,60,93930,CA,Monterey County,King City,-121.1297858,36.2283404
863,PG&E,,CEC,SUBSTATION,303911,Boronda,115,93907,CA,Monterey County,Unincorporated,-121.6792578,36.69028668
864,PG&E,,CEC,SUBSTATION,306298,Buena Vista,60,93901,CA,Monterey County,Salinas,-121.6293384,36.65389082
865,PG&E,,CEC,SUBSTATION,301785,Camphora,60,93960,CA,Monterey County,Soledad,-121.3903611,36.46821918
866,PG&E,,CEC,SUBSTATION,310500,Castroville,115,95012,CA,Monterey County,Unincorporated,-121.7347355,36.7631199
867,PG&E,,CEC,TAP,310598,Chualar,60,93908,CA,Monterey County,Unincorporated,-121.5205016,36.57244588
868,PG&E,,CEC,SUBSTATION,307786,Coburn,230,93930,CA,Monterey County,Unincorporated,-121.1458369,36.26513886
869,PG&E,,CEC,SUBSTATION,303440,Del Monte,115,93940,CA,Monterey County,Monterey,-121.8530362,36.59823783
870,PG&E,,CEC,SUBSTATION,301421,Edward Pike,60,93908,CA,Monterey County,Unincorporated,-121.5876417,36.62623671
871,PG&E,,CEC,SUBSTATION,302141,Fort Ord,115,93955,CA,Monterey County,Seaside,-121.7925252,36.64341665
872,PG&E,,CEC,SUBSTATION,305559,Gabilan,60,93906,CA,Monterey County,Unincorporated,-121.6133116,36.73130338
873,PG&E,,CEC,SUBSTATION,309549,Gonzales,60,93926,CA,Monterey County,Gonzales,-121.4468904,36.50886507
874,PG&E,,CEC,SUBSTATION,307604,Hatton,60,93923,CA,Monterey County,Unincorporated,-121.8979239,36.55686072
875,PG&E,,CEC,SUBSTATION,308671,Industrial Acres,60,93901,CA,Monterey County,Salinas,-121.628595,36.66378719
876,PG&E,,CEC,SUBSTATION,305816,Jolon,60,93930,CA,Monterey County,Unincorporated,-121.1679583,36.01324171
877,PG&E,,CEC,SUBSTATION,302946,Lagunitas,,93908,CA,Monterey County,Unincorporated,-121.6059886,36.74876123
878,PG&E,,CEC,SUBSTATION,304352,Laureles,60,93924,CA,Monterey County,Unincorporated,-121.7272208,36.47770203
879,PG&E,,CEC,SUBSTATION,310404,Los Coches,60,93960,CA,Monterey County,Unincorporated,-121.2800808,36.36646576
880,PG&E,,CEC,SUBSTATION,300416,Los Ositos,60,93930,CA,Monterey County,Unincorporated,-121.2002607,36.29381155
881,PG&E,,CEC,SUBSTATION,306342,Manzanita,,93955,CA,Monterey County,Seaside,-121.8335449,36.61454769
882,PG&E,,CEC,SUBSTATION,304111,Monterey,60,93940,CA,Monterey County,Monterey,-121.8904837,36.59982743
883,PG&E,,CEC,SUBSTATION,301692,Monterey Naval Lab,60,93940,CA,Monterey County,Monterey,-121.8638317,36.58953306
884,PG&E,,CEC,SUBSTATION,303987,Navy School,60,93943,CA,Monterey County,Monterey,-121.8768842,36.59960041
885,Other,,CEC,,,Fresh Express,,93901,CA,Monterey County,Salinas,-121.6340191,36.65238324
886,PG&E,,CEC,SUBSTATION,304976,Oil Fields,60,93450,CA,Monterey County,Unincorporated,-120.8511528,35.95647497
887,PG&E,,CEC,SUBSTATION,303209,Otter,60,93920,CA,Monterey County,Unincorporated,-121.8993005,36.38008664
888,PG&E,,CEC,SUBSTATION,301414,Prunedale,,93907,CA,Monterey County,Unincorporated,-121.6711331,36.7853813
889,PG&E,,CEC,SUBSTATION,301438,Salinas,115,93901,CA,Monterey County,Salinas,-121.6513855,36.68227572
890,Other,,CEC,SUBSTATION,309839,Salinas River,,93450,CA,Monterey County,Unincorporated,-120.8684416,35.9519472
891,PG&E,,CEC,SUBSTATION,310041,San Ardo,60,93450,CA,Monterey County,Unincorporated,-120.9368055,36.07369445
892,Other,,CEC,SUBSTATION,302188,Sargent Canyon,,93450,CA,Monterey County,Unincorporated,-120.8406806,35.93549446
893,PG&E,,CEC,SUBSTATION,304545,Soledad,,93960,CA,Monterey County,Soledad,-121.3324963,36.42963881
894,PG&E,,CEC,SUBSTATION,305707,Spence,60,93908,CA,Monterey County,Unincorporated,-121.5671333,36.6137528
895,PG&E,,CEC,SUBSTATION,305068,Viejo,60,93940,CA,Monterey County,Monterey,-121.9084179,36.57837138
896,PG&E,,CEC,SUBSTATION,300530,Basalt,60,94558,CA,Napa County,Unincorporated,-122.269232,38.26316201
897,PG&E,,CEC,SUBSTATION,308667,Calistoga,60,94515,CA,Napa County,Unincorporated,-122.5786104,38.59208804
898,PG&E,,CEC,SUBSTATION,308461,Highway,,94503,CA,Napa County,American Canyon,-122.253621,38.16621802
899,PG&E,,CEC,SUBSTATION,301380,Monticello,115,94558,CA,Napa County,Unincorporated,-122.2144636,38.50851659
900,PG&E,,CEC,SUBSTATION,306299,Napa,115,94559,CA,Napa County,Napa,-122.278915,38.29545187
901,PG&E,,CEC,SUBSTATION,308856,Pueblo,115,94558,CA,Napa County,Unincorporated,-122.2994534,38.34521981
902,PG&E,,CEC,SUBSTATION,300459,Silverado,115,94574,CA,Napa County,St. Helena,-122.4591107,38.49981794
903,PG&E,,CEC,SUBSTATION,304349,Tulucay,230,94558,CA,Napa County,Unincorporated,-122.267949,38.24782902
904,Other,,CEC,SUBSTATION,300890,Glenshire,60,96161,CA,Nevada County,Truckee,-120.0862313,39.35227675
905,Other,,CEC,SUBSTATION,309028,Truckee,,96161,CA,Nevada County,Truckee,-120.1811247,39.33058136
906,PG&E,,CEC,SUBSTATION,310414,Brunswick,115,95945,CA,Nevada County,Grass Valley,-121.0350261,39.23105002
907,PG&E,,CEC,SUBSTATION,301052,Columbia Hill,60,95959,CA,Nevada County,Unincorporated,-121.1013503,39.33184021
908,PG&E,,CEC,SUBSTATION,308364,Grass Valley,60,95945,CA,Nevada County,Grass Valley,-121.0613609,39.20905549
909,PG&E,,CEC,SUBSTATION,300810,Higgins,115,95949,CA,Nevada County,Unincorporated,-121.0906925,39.04404057
910,PG&E,,CEC,SUBSTATION,302110,Smartsville,60,95977,CA,Yuba County,Unincorporated,-121.3032691,39.20900553
911,SCE,,CEC,SUBSTATION,307200,Ammonia,66,92823,CA,Orange County,Unincorporated,-117.8472599,33.92250286
912,SCE,,CEC,SUBSTATION,300975,Apollo,66,92647,CA,Orange County,Huntington Beach,-118.0371725,33.75252377
913,SCE,,CEC,SUBSTATION,304793,Atwood,,92870,CA,Orange County,Placentia,-117.8320335,33.8803142
914,SCE,,CEC,SUBSTATION,301920,Barre,,90680,CA,Orange County,Stanton,-117.9817954,33.80891103
915,SCE,,CEC,SUBSTATION,302996,Bayside,66,92627,CA,Orange County,Costa Mesa,-117.907066,33.65698201
916,SCE,,CEC,SUBSTATION,300698,Bolsa,66,92649,CA,Orange County,Huntington Beach,-118.0332781,33.73062983
917,SCE,43,CEC,SUBSTATION,306140,Borrego,66,92651,CA,Orange County,Laguna Beach,-117.74901,33.597665
918,SCE,,CEC,SUBSTATION,307607,Brea,66,92821,CA,Orange County,Brea,-117.8480316,33.92015153
919,SCE,,CEC,SUBSTATION,301791,Brookhurst,66,92683,CA,Orange County,Westminster,-117.957129,33.73723539
920,SCE,,CEC,SUBSTATION,303905,Bryan,66,92782,CA,Orange County,Tustin,-117.8022639,33.73454449
921,SCE,,CEC,SUBSTATION,309594,Burris Pit,66,92806,CA,Orange County,Anaheim,-117.8714279,33.8196748
922,SCE,,CEC,SUBSTATION,310360,Cabrillo,66,92612,CA,Orange County,Irvine,-117.8475913,33.6718729
923,SCE,,CEC,SUBSTATION,305059,Camden,66,92707,CA,Orange County,Santa Ana,-117.883619,33.71318376
924,SCE,,CEC,SUBSTATION,308281,Canyon,,92807,CA,Orange County,Anaheim,-117.7469806,33.87145556
925,SCE,,CEC,SUBSTATION,307792,Carolina,66,92835,CA,Orange County,Fullerton,-117.8795575,33.91020869
926,SCE,,CEC,SUBSTATION,308211,Chestnut,66,92705,CA,Orange County,Santa Ana,-117.849825,33.7332416
927,SCE,,CEC,SUBSTATION,310120,Chip,66,92660,CA,Orange County,Newport Beach,-117.8606297,33.66060237
928,SCE,43,CEC,SUBSTATION,305712,Chiquita,66,92692,CA,Orange County,Mission Viejo,-117.631771,33.62960999
929,SCE,,CEC,SUBSTATION,304415,Coygen,66,92657,CA,Orange County,Newport Beach,-117.821927,33.61304202
930,SCE,,CEC,SUBSTATION,307215,Crown,66,92625,CA,Orange County,Newport Beach,-117.8651633,33.60815162
931,SCE,,CEC,SUBSTATION,303358,Cypress,66,90720,CA,Orange County,Los Alamitos,-118.072602,33.8096399
932,SCE,,CEC,SUBSTATION,302056,Ellis,,92646,CA,Orange County,Huntington Beach,-117.943098,33.68533899
933,SCE,,CEC,SUBSTATION,304780,Ely,,90620,CA,Orange County,Buena Park,-118.02792,33.85108801
934,SCE,,CEC,SUBSTATION,301963,Estrella,66,92606,CA,Orange County,Irvine,-117.8285556,33.68750555
935,SCE,,CEC,SUBSTATION,301691,Fairview,66,92707,CA,Orange County,Santa Ana,-117.867617,33.693574
936,SCE,,CEC,SUBSTATION,310185,Fullerton,66,92832,CA,Orange County,Fullerton,-117.921312,33.86814402
937,SCE,,CEC,SUBSTATION,302931,Gilbert,66,92833,CA,Orange County,Fullerton,-117.9717703,33.87756274
938,SCE,,CEC,SUBSTATION,304456,Gisler,66,92626,CA,Orange County,Costa Mesa,-117.912816,33.68734602
939,SCE,,CEC,SUBSTATION,305605,Hamilton,66,92646,CA,Orange County,Huntington Beach,-117.95263,33.65452399
940,SCE,,CEC,SUBSTATION,300687,Irvine,,92618,CA,Orange County,Irvine,-117.7421917,33.68303892
941,SCE,,CEC,SUBSTATION,303135,Johanna,,92705,CA,Orange County,Santa Ana,-117.8526639,33.71346111
942,SCE,,CEC,SUBSTATION,303088,Johnair,66,92707,CA,Orange County,Unincorporated,-117.8637801,33.67561118
943,SCE,,CEC,SUBSTATION,309806,La Habra,66,90631,CA,Orange County,La Habra,-117.933787,33.925175
