{
"type": "FeatureCollection",
"name": "Electric Sub Stations",
"crs": { "type": "name", "properties": { "name": "urn:ogc:def:crs:OGC:1.3:CRS84" } },
"features": [
{ "type": "Feature", "properties": { "X": -13587799.2447, "Y": 4535905.499, "OBJECTID": 5, "Owner": "PG&E", "Path": null, "Source": "CEC", "Type": "SUBSTATION", "HIFLD_ID": 303892, "Name": "Castro Valley", "Max_Voltage": 230, "ZIP_CODE": 94546, "STATE": "CA", "COUNTY": "Alameda County", "CITY": "Unincorporated", "Lon": -122.061277390173, "Lat": 37.691280984357597 }, "geometry": { "type": "Point", "coordinates": [ -122.061277390173004, 37.691280984357597 ] } },
{ "type": "Feature", "properties": { "X": -13593958.977700001, "Y": 4526596.5433, "OBJECTID": 10, "Owner": "PG&E", "Path": "East Bay", "Source": "CEC", "Type": "SUBSTATION", "HIFLD_ID": 301389, "Name": "Eastshore", "Max_Voltage": 230, "ZIP_CODE": 94545, "STATE": "CA", "COUNTY": "Alameda County", "CITY": "Hayward", "Lon": -122.11661121383101, "Lat": 37.6250785878158 }, "geometry": { "type": "Point", "coordinates": [ -122.116611213831007, 37.6250785878158 ] } },
{ "type": "Feature", "properties": { "X": -13551282.786900001, "Y": 4537248.0943999998, "OBJECTID": 19, "Owner": "PG&E", "Path": null, "Source": "CEC", "Type": "SUBSTATION", "HIFLD_ID": 301848, "Name": "Las Positas", "Max_Voltage": 230, "ZIP_CODE": 94551, "STATE": "CA", "COUNTY": "Alameda County", "CITY": "Livermore", "Lon": -121.73324446912299, "Lat": 37.700824232829397 }, "geometry": { "type": "Point", "coordinates": [ -121.733244469122994, 37.700824232829397 ] } },
{ "type": "Feature", "properties": { "X": -13579448.616599999, "Y": 4509153.9051000001, "OBJECTID": 22, "Owner": "PG&E", "Path": null, "Source": "CEC", "Type": "SUBSTATION", "HIFLD_ID": 306611, "Name": "Newark", "Max_Voltage": 230, "ZIP_CODE": 94538, "STATE": "CA", "COUNTY": "Alameda County", "CITY": "Fremont", "Lon": -121.986262422237, "Lat": 37.500873115378099 }, "geometry": { "type": "Point", "coordinates": [ -121.986262422237004, 37.500873115378099 ] } },
{ "type": "Feature", "properties": { "X": -13596333.972, "Y": 4508044.7608000003, "OBJECTID": 26, "Owner": "PG&E", "Path": null, "Source": "CEC", "Type": "SUBSTATION", "HIFLD_ID": 308197, "Name": "Ravenswood", "Max_Voltage": 230, "ZIP_CODE": 94025, "STATE": "CA", "COUNTY": "San Mateo County", "CITY": "Menlo Park", "Lon": -122.137946150405, "Lat": 37.492968124083099 }, "geometry": { "type": "Point", "coordinates": [ -122.137946150405, 37.492968124083099 ] } },
{ "type": "Feature", "properties": { "X": -13532538.076199999, "Y": 4538876.3597, "OBJECTID": 30, "Owner": "PG&E", "Path": "15X", "Source": "CEC", "Type": "SUBSTATION", "HIFLD_ID": 305530, "Name": "Tesla", "Max_Voltage": 500, "ZIP_CODE": 95377, "STATE": "CA", "COUNTY": "Alameda County", "CITY": "Unincorporated", "Lon": -121.564857867683, "Lat": 37.712396393152801 }, "geometry": { "type": "Point", "coordinates": [ -121.564857867683003, 37.712396393152801 ] } },
{ "type": "Feature", "properties": { "X": -13527284.205499999, "Y": 4786962.8579000002, "OBJECTID": 63, "Owner": "PG&E", "Path": null, "Source": "CEC", "Type": "SUBSTATION", "HIFLD_ID": 307680, "Name": "Palermo", "Max_Voltage": 230, "ZIP_CODE": 95966, "STATE": "CA", "COUNTY": "Butte County", "CITY": "Unincorporated", "Lon": -121.517661544136, "Lat": 39.454343052281402 }, "geometry": { "type": "Point", "coordinates": [ -121.517661544136004, 39.454343052281402 ] } },
{ "type": "Feature", "properties": { "X": -13418030.7619, "Y": 4571609.1819000002, "OBJECTID": 74, "Owner": "WAPA", "Path": "H2", "Source": "CEC", "Type": "SUBSTATION", "HIFLD_ID": 304398, "Name": "Melones", "Max_Voltage": 230, "ZIP_CODE": 95222, "STATE": "CA", "COUNTY": "Calaveras County", "CITY": "Unincorporated", "Lon": -120.536221161622, "Lat": 37.9446465972051 }, "geometry": { "type": "Point", "coordinates": [ -120.536221161621995, 37.9446465972051 ] } },
{ "type": "Feature", "properties": { "X": -13556613.4735, "Y": 4581097.2685000002, "OBJECTID": 92, "Owner": "Other", "Path": null, "Source": "CEC", "Type": "SUBSTATION", "HIFLD_ID": 307155, "Name": "GWF 3", "Max_Voltage": 230, "ZIP_CODE": 94509, "STATE": "CA", "COUNTY": "Contra Costa County", "CITY": "Antioch", "Lon": -121.781130841512, "Lat": 38.011830980987497 }, "geometry": { "type": "Point", "coordinates": [ -121.781130841511995, 38.011830980987497 ] } },
{ "type": "Feature", "properties": { "X": -13556801.854599999, "Y": 4579362.9041, "OBJECTID": 107, "Owner": "PG&E", "Path": null, "Source": "CEC", "Type": "SUBSTATION", "HIFLD_ID": 304763, "Name": "Contra Costa", "Max_Voltage": 230, "ZIP_CODE": 94509, "STATE": "CA", "COUNTY": "Contra Costa County", "CITY": "Antioch", "Lon": -121.782823097568, "Lat": 37.999554678692597 }, "geometry": { "type": "Point", "coordinates": [ -121.782823097567999, 37.999554678692597 ] } },
{ "type": "Feature", "properties": { "X": -13598881.597, "Y": 4557942.2276999997, "OBJECTID": 119, "Owner": "PG&E", "Path": "East Bay", "Source": "CEC", "Type": "SUBSTATION", "HIFLD_ID": 301876, "Name": "Moraga", "Max_Voltage": 230, "ZIP_CODE": 94563, "STATE": "CA", "COUNTY": "Contra Costa County", "CITY": "Orinda", "Lon": -122.160831854805, "Lat": 37.847763929183301 }, "geometry": { "type": "Point", "coordinates": [ -122.160831854804997, 37.847763929183301 ] } },
{ "type": "Feature", "properties": { "X": -13569489.260399999, "Y": 4584628.8328, "OBJECTID": 120, "Owner": "PG&E", "Path": "East Bay", "Source": "CEC", "Type": "SUBSTATION", "HIFLD_ID": 306987, "Name": "Pittsburg", "Max_Voltage": 230, "ZIP_CODE": 94565, "STATE": "CA", "COUNTY": "Contra Costa County", "CITY": "Pittsburg", "Lon": -121.896796003178, "Lat": 38.036821996943601 }, "geometry": { "type": "Point", "coordinates": [ -121.896796003177997, 38.036821996943601 ] } },
{ "type": "Feature", "properties": { "X": -13589919.422900001, "Y": 4560323.597, "OBJECTID": 124, "Owner": "PG&E", "Path": null, "Source": "CEC", "Type": "SUBSTATION", "HIFLD_ID": 309537, "Name": "Rossmoor", "Max_Voltage": 230, "ZIP_CODE": 94549, "STATE": "CA", "COUNTY": "Contra Costa County", "CITY": "Walnut Creek", "Lon": -122.080323275875, "Lat": 37.864654216256298 }, "geometry": { "type": "Point", "coordinates": [ -122.080323275875003, 37.864654216256298 ] } },
{ "type": "Feature", "properties": { "X": -13577378.075099999, "Y": 4548733.9200999998, "OBJECTID": 125, "Owner": "PG&E", "Path": null, "Source": "CEC", "Type": null, "HIFLD_ID": null, "Name": "San Ramon Research Cntr.", "Max_Voltage": 230, "ZIP_CODE": 94583, "STATE": "CA", "COUNTY": "Contra Costa County", "CITY": "Danville", "Lon": -121.96766243161299, "Lat": 37.782415958665901 }, "geometry": { "type": "Point", "coordinates": [ -121.967662431612993, 37.782415958665901 ] } },
{ "type": "Feature", "properties": { "X": -13573843.388699999, "Y": 4543426.6232000003, "OBJECTID": 127, "Owner": "PG&E", "Path": "East Bay", "Source": "CEC", "Type": "SUBSTATION", "HIFLD_ID": 309611, "Name": "San Ramon", "Max_Voltage": 230, "ZIP_CODE": 94583, "STATE": "CA", "COUNTY": "Contra Costa County", "CITY": "San Ramon", "Lon": -121.935909803562, "Lat": 37.744725753045898 }, "geometry": { "type": "Point", "coordinates": [ -121.935909803561998, 37.744725753045898 ] } },
{ "type": "Feature", "properties": { "X": -13604142.913899999, "Y": 4566078.8013000004, "OBJECTID": 128, "Owner": "PG&E", "Path": null, "Source": "CEC", "Type": "SUBSTATION", "HIFLD_ID": 307001, "Name": "Sobrante", "Max_Voltage": 230, "ZIP_CODE": 94563, "STATE": "CA", "COUNTY": "Contra Costa County", "CITY": "Orinda", "Lon": -122.208095069105, "Lat": 37.905458048175497 }, "geometry": { "type": "Point", "coordinates": [ -122.208095069104999, 37.905458048175497 ] } },
{ "type": "Feature", "properties": { "X": -13587863.770300001, "Y": 4582201.2518999996, "OBJECTID": 130, "Owner": "PG&E", "Path": null, "Source": "CEC", "Type": "SUBSTATION", "HIFLD_ID": 309103, "Name": "Tidewater", "Max_Voltage": 230, "ZIP_CODE": 94553, "STATE": "CA", "COUNTY": "Contra Costa County", "CITY": "Unincorporated", "Lon": -122.061857033496, "Lat": 38.019644204114798 }, "geometry": { "type": "Point", "coordinates": [ -122.061857033495997, 38.019644204114798 ] } },
{ "type": "Feature", "properties": { "X": -13427570.875499999, "Y": 4692435.9496, "OBJECTID": 152, "Owner": "PG&E", "Path": "SMUD", "Source": "CEC", "Type": null, "HIFLD_ID": null, "Name": "El Dorado", "Max_Voltage": 230, "ZIP_CODE": 95726, "STATE": "CA", "COUNTY": "El Dorado County", "CITY": "Unincorporated", "Lon": -120.621921461011, "Lat": 38.795605429014898 }, "geometry": { "type": "Point", "coordinates": [ -120.621921461010999, 38.795605429014898 ] } },
{ "type": "Feature", "properties": { "X": -12766172.3445, "Y": 3976722.2031, "OBJECTID": 160, "Owner": "Other", "Path": null, "Source": "CEC", "Type": "SUBSTATION", "HIFLD_ID": 304454, "Name": "Blythe Walc", "Max_Voltage": 161, "ZIP_CODE": 92225, "STATE": "CA", "COUNTY": "Riverside County", "CITY": "Blythe", "Lon": -114.680477367252, "Lat": 33.611258372170298 }, "geometry": { "type": "Point", "coordinates": [ -114.680477367251996, 33.611258372170298 ] } },
{ "type": "Feature", "properties": { "X": -13407636.8939, "Y": 4702128.2193, "OBJECTID": 163, "Owner": "SMUD", "Path": "SMUD", "Source": "CEC", "Type": "SUBSTATION", "HIFLD_ID": 300800, "Name": "Union Valley", "Max_Voltage": 230, "ZIP_CODE": 51, "STATE": "CA", "COUNTY": "El Dorado County", "CITY": "Unincorporated", "Lon": -120.442851457191, "Lat": 38.863432031407001 }, "geometry": { "type": "Point", "coordinates": [ -120.442851457190997, 38.863432031407001 ] } },
{ "type": "Feature", "properties": { "X": -13436466.1197, "Y": 4399468.5296, "OBJECTID": 168, "Owner": "PG&E", "Path": "15", "Source": "CEC", "Type": "SUBSTATION", "HIFLD_ID": 306180, "Name": "Oxford", "Max_Voltage": 500, "ZIP_CODE": 93640, "STATE": "CA", "COUNTY": "Fresno County", "CITY": "Unincorporated", "Lon": -120.70182879866999, "Lat": 36.715093354210303 }, "geometry": { "type": "Point", "coordinates": [ -120.701828798669993, 36.715093354210303 ] } },
{ "type": "Feature", "properties": { "X": -13377953.2521, "Y": 4382308.4713000003, "OBJECTID": 195, "Owner": "PG&E", "Path": null, "Source": "CEC", "Type": "SUBSTATION", "HIFLD_ID": 303306, "Name": "Helm", "Max_Voltage": 230, "ZIP_CODE": 93660, "STATE": "CA", "COUNTY": "Fresno County", "CITY": "Unincorporated", "Lon": -120.176198766041, "Lat": 36.591423431690203 }, "geometry": { "type": "Point", "coordinates": [ -120.176198766040997, 36.591423431690203 ] } },
{ "type": "Feature", "properties": { "X": -13349670.9727, "Y": 4417484.5049000001, "OBJECTID": 196, "Owner": "PG&E", "Path": "15", "Source": "CEC", "Type": "SUBSTATION", "HIFLD_ID": 302888, "Name": "Herndon", "Max_Voltage": 230, "ZIP_CODE": 93722, "STATE": "CA", "COUNTY": "Fresno County", "CITY": "Fresno", "Lon": -119.922134727871, "Lat": 36.844717860538502 }, "geometry": { "type": "Point", "coordinates": [ -119.922134727870997, 36.844717860538502 ] } },
{ "type": "Feature", "properties": { "X": -13345299.4893, "Y": 4398153.462, "OBJECTID": 199, "Owner": "PG&E", "Path": null, "Source": "CEC", "Type": "SUBSTATION", "HIFLD_ID": 301827, "Name": "Kearney (New)", "Max_Voltage": 230, "ZIP_CODE": 93706, "STATE": "CA", "COUNTY": "Fresno County", "CITY": "Unincorporated", "Lon": -119.88286502422601, "Lat": 36.705622891596903 }, "geometry": { "type": "Point", "coordinates": [ -119.882865024226007, 36.705622891596903 ] } },
{ "type": "Feature", "properties": { "X": -13318176.0067, "Y": 4384999.3074000003, "OBJECTID": 205, "Owner": "PG&E", "Path": "H5", "Source": "CEC", "Type": "SUBSTATION", "HIFLD_ID": 308822, "Name": "McCall", "Max_Voltage": 230, "ZIP_CODE": 93625, "STATE": "CA", "COUNTY": "Fresno County", "CITY": "Unincorporated", "Lon": -119.639210634569, "Lat": 36.6108290059788 }, "geometry": { "type": "Point", "coordinates": [ -119.639210634568997, 36.6108290059788 ] } },
{ "type": "Feature", "properties": { "X": -13357081.9166, "Y": 4382578.2414999995, "OBJECTID": 206, "Owner": "PG&E", "Path": null, "Source": "CEC", "Type": "SUBSTATION", "HIFLD_ID": 304647, "Name": "Mc Mullin", "Max_Voltage": 230, "ZIP_CODE": 93706, "STATE": "CA", "COUNTY": "Fresno County", "CITY": "Unincorporated", "Lon": -119.988708369542, "Lat": 36.593369160650099 }, "geometry": { "type": "Point", "coordinates": [ -119.988708369541996, 36.593369160650099 ] } },
{ "type": "Feature", "properties": { "X": -13423099.6841, "Y": 4390923.6102, "OBJECTID": 211, "Owner": "PG&E", "Path": null, "Source": "CEC", "Type": "SUBSTATION", "HIFLD_ID": 307408, "Name": "Panoche", "Max_Voltage": 230, "ZIP_CODE": 93622, "STATE": "CA", "COUNTY": "Fresno County", "CITY": "Unincorporated", "Lon": -120.581756064994, "Lat": 36.653536251618299 }, "geometry": { "type": "Point", "coordinates": [ -120.581756064993996, 36.653536251618299 ] } },
{ "type": "Feature", "properties": { "X": -13273776.944, "Y": 4467604.9891999997, "OBJECTID": 229, "Owner": "SCE", "Path": "H6", "Source": "CEC", "Type": null, "HIFLD_ID": null, "Name": "Camp 10", "Max_Voltage": 230, "ZIP_CODE": 93664, "STATE": "CA", "COUNTY": "Fresno County", "CITY": "Unincorporated", "Lon": -119.240367067983, "Lat": 37.204178576772499 }, "geometry": { "type": "Point", "coordinates": [ -119.240367067983001, 37.204178576772499 ] } },
{ "type": "Feature", "properties": { "X": -13273830.299900001, "Y": 4467781.115, "OBJECTID": 232, "Owner": "SCE", "Path": "H6", "Source": "CEC", "Type": null, "HIFLD_ID": null, "Name": "Pitman", "Max_Voltage": 230, "ZIP_CODE": 93664, "STATE": "CA", "COUNTY": "Fresno County", "CITY": "Unincorporated", "Lon": -119.24084637183201, "Lat": 37.205438738306199 }, "geometry": { "type": "Point", "coordinates": [ -119.240846371832006, 37.205438738306199 ] } },
{ "type": "Feature", "properties": { "X": -13596885.883400001, "Y": 4833721.498, "OBJECTID": 238, "Owner": "PG&E", "Path": null, "Source": "CEC", "Type": "SUBSTATION", "HIFLD_ID": 305750, "Name": "Glenn", "Max_Voltage": 230, "ZIP_CODE": 95963, "STATE": "CA", "COUNTY": "Glenn County", "CITY": "Unincorporated", "Lon": -122.142904054826, "Lat": 39.777913044366699 }, "geometry": { "type": "Point", "coordinates": [ -122.142904054826005, 39.777913044366699 ] } },
{ "type": "Feature", "properties": { "X": -13610260.564, "Y": 4799249.2171, "OBJECTID": 240, "Owner": "PG&E", "Path": null, "Source": "CEC", "Type": "SUBSTATION", "HIFLD_ID": 306883, "Name": "Logan Creek", "Max_Voltage": 230, "ZIP_CODE": 95988, "STATE": "CA", "COUNTY": "Glenn County", "CITY": "Unincorporated", "Lon": -122.263050854464, "Lat": 39.539511190714897 }, "geometry": { "type": "Point", "coordinates": [ -122.263050854463998, 39.539511190714897 ] } },
{ "type": "Feature", "properties": { "X": -13541086.6504, "Y": 4551374.3454999998, "OBJECTID": 266, "Owner": "Other", "Path": null, "Source": "CEC", "Type": "SUBSTATION", "HIFLD_ID": 303676, "Name": "Windmaster", "Max_Voltage": 230, "ZIP_CODE": 94514, "STATE": "CA", "COUNTY": "Contra Costa County", "CITY": "Unincorporated", "Lon": -121.641651016659, "Lat": 37.801160000971599 }, "geometry": { "type": "Point", "coordinates": [ -121.641651016658997, 37.801160000971599 ] } },
{ "type": "Feature", "properties": { "X": -12861536.383300001, "Y": 3869097.3911000001, "OBJECTID": 285, "Owner": "IID", "Path": "46", "Source": "CEC", "Type": "SUBSTATION", "HIFLD_ID": 301611, "Name": "El Centro", "Max_Voltage": 230, "ZIP_CODE": 92243, "STATE": "CA", "COUNTY": "Imperial County", "CITY": "El Centro", "Lon": -115.53714710365399, "Lat": 32.802341462179299 }, "geometry": { "type": "Point", "coordinates": [ -115.537147103653993, 32.802341462179299 ] } },
{ "type": "Feature", "properties": { "X": -12832210.907500001, "Y": 3864853.7461000001, "OBJECTID": 290, "Owner": "IID", "Path": null, "Source": "CEC", "Type": "SUBSTATION", "HIFLD_ID": 300726, "Name": "Highline", "Max_Voltage": 230, "ZIP_CODE": 92250, "STATE": "CA", "COUNTY": "Imperial County", "CITY": "Unincorporated", "Lon": -115.273711872837, "Lat": 32.770293030637099 }, "geometry": { "type": "Point", "coordinates": [ -115.273711872836998, 32.770293030637099 ] } },
{ "type": "Feature", "properties": { "X": -12850106.895400001, "Y": 3920864.8166, "OBJECTID": 297, "Owner": "IID", "Path": null, "Source": "CEC", "Type": "SUBSTATION", "HIFLD_ID": 310447, "Name": "Midway", "Max_Voltage": 230, "ZIP_CODE": 92233, "STATE": "CA", "COUNTY": "Imperial County", "CITY": "Unincorporated", "Lon": -115.434474267166, "Lat": 33.192362691317101 }, "geometry": { "type": "Point", "coordinates": [ -115.434474267165996, 33.192362691317101 ] } },
{ "type": "Feature", "properties": { "X": -12769753.2524, "Y": 3860390.4452, "OBJECTID": 301, "Owner": "IID", "Path": null, "Source": "CEC", "Type": "SUBSTATION", "HIFLD_ID": 300301, "Name": "Araz", "Max_Voltage": 161, "ZIP_CODE": 92283, "STATE": "CA", "COUNTY": "Imperial County", "CITY": "Unincorporated", "Lon": -114.71264521053401, "Lat": 32.736573280841696 }, "geometry": { "type": "Point", "coordinates": [ -114.712645210534006, 32.736573280841696 ] } },
{ "type": "Feature", "properties": { "X": -12857525.9805, "Y": 3927506.5196000002, "OBJECTID": 303, "Owner": "IID", "Path": null, "Source": "CEC", "Type": "SUBSTATION", "HIFLD_ID": 301669, "Name": "Niland", "Max_Voltage": 161, "ZIP_CODE": 92233, "STATE": "CA", "COUNTY": "Imperial County", "CITY": "Unincorporated", "Lon": -115.501121042062, "Lat": 33.242277041911699 }, "geometry": { "type": "Point", "coordinates": [ -115.501121042061996, 33.242277041911699 ] } },
{ "type": "Feature", "properties": { "X": -13348721.317399999, "Y": 4269777.3992, "OBJECTID": 337, "Owner": "PG&E", "Path": null, "Source": "CEC", "Type": "SUBSTATION", "HIFLD_ID": 306367, "Name": "Arco", "Max_Voltage": 230, "ZIP_CODE": 93249, "STATE": "CA", "COUNTY": "Kern County", "CITY": "Unincorporated", "Lon": -119.91360382886, "Lat": 35.775522397362202 }, "geometry": { "type": "Point", "coordinates": [ -119.913603828860005, 35.775522397362202 ] } },
{ "type": "Feature", "properties": { "X": -13247513.221100001, "Y": 4216629.8032, "OBJECTID": 340, "Owner": "PG&E", "Path": null, "Source": "CEC", "Type": "SUBSTATION", "HIFLD_ID": 303106, "Name": "Bakersfield", "Max_Voltage": 230, "ZIP_CODE": 93301, "STATE": "CA", "COUNTY": "Kern County", "CITY": "Bakersfield", "Lon": -119.00443603098699, "Lat": 35.387232471779399 }, "geometry": { "type": "Point", "coordinates": [ -119.004436030986994, 35.387232471779399 ] } },
{ "type": "Feature", "properties": { "X": -13254548.4155, "Y": 4207051.8255000003, "OBJECTID": 397, "Owner": "PG&E", "Path": null, "Source": "CEC", "Type": "SUBSTATION", "HIFLD_ID": 306267, "Name": "Stockdale", "Max_Voltage": 230, "ZIP_CODE": 93313, "STATE": "CA", "COUNTY": "Kern County", "CITY": "Bakersfield", "Lon": -119.067634257306, "Lat": 35.317056923008501 }, "geometry": { "type": "Point", "coordinates": [ -119.067634257305997, 35.317056923008501 ] } },
{ "type": "Feature", "properties": { "X": -13244343.8026, "Y": 4175948.8345, "OBJECTID": 413, "Owner": "PG&E", "Path": null, "Source": "CEC", "Type": "SUBSTATION", "HIFLD_ID": 309582, "Name": "Wheeler Ridge", "Max_Voltage": 230, "ZIP_CODE": 93307, "STATE": "CA", "COUNTY": "Kern County", "CITY": "Unincorporated", "Lon": -118.975964660073, "Lat": 35.088752717801 }, "geometry": { "type": "Point", "coordinates": [ -118.975964660073004, 35.088752717801 ] } },
{ "type": "Feature", "properties": { "X": -13190068.124700001, "Y": 4037974.6261999998, "OBJECTID": 491, "Owner": "LADWP", "Path": null, "Source": "CEC", "Type": "SUBSTATION", "HIFLD_ID": 309843, "Name": "Kenter Canyon", "Max_Voltage": 230, "ZIP_CODE": 90049, "STATE": "CA", "COUNTY": "Los Angeles County", "CITY": "Los Angeles", "Lon": -118.488397949632, "Lat": 34.068284280912501 }, "geometry": { "type": "Point", "coordinates": [ -118.488397949632002, 34.068284280912501 ] } },
{ "type": "Feature", "properties": { "X": -13175636.1227, "Y": 4043040.8778, "OBJECTID": 493, "Owner": "LADWP", "Path": null, "Source": "CEC", "Type": "SUBSTATION", "HIFLD_ID": 308206, "Name": "Nichols Canyon", "Max_Voltage": 230, "ZIP_CODE": 90046, "STATE": "CA", "COUNTY": "Los Angeles County", "CITY": "Los Angeles", "Lon": -118.358753069882, "Lat": 34.105975791580903 }, "geometry": { "type": "Point", "coordinates": [ -118.358753069881999, 34.105975791580903 ] } },
{ "type": "Feature", "properties": { "X": -13188947.5307, "Y": 4066549.3874, "OBJECTID": 495, "Owner": "LADWP", "Path": "LADWP-N", "Source": "CEC", "Type": "SUBSTATION", "HIFLD_ID": 307693, "Name": "Rinaldi", "Max_Voltage": 500, "ZIP_CODE": 91344, "STATE": "CA", "COUNTY": "Los Angeles County", "CITY": "Los Angeles", "Lon": -118.47833148296201, "Lat": 34.280652829274899 }, "geometry": { "type": "Point", "coordinates": [ -118.478331482962005, 34.280652829274899 ] } },
{ "type": "Feature", "properties": { "X": -13161291.0678, "Y": 4033869.3929, "OBJECTID": 496, "Owner": "LADWP", "Path": null, "Source": "CEC", "Type": "SUBSTATION", "HIFLD_ID": 309042, "Name": "River", "Max_Voltage": 230, "ZIP_CODE": 90021, "STATE": "CA", "COUNTY": "Los Angeles County", "CITY": "Los Angeles", "Lon": -118.229889249075, "Lat": 34.037730176980197 }, "geometry": { "type": "Point", "coordinates": [ -118.229889249075001, 34.037730176980197 ] } },
{ "type": "Feature", "properties": { "X": -13160871.432, "Y": 4037815.7839000002, "OBJECTID": 497, "Owner": "LADWP", "Path": null, "Source": "CEC", "Type": "SUBSTATION", "HIFLD_ID": 310527, "Name": "Station A (St. John)", "Max_Voltage": 230, "ZIP_CODE": 90012, "STATE": "CA", "COUNTY": "Los Angeles County", "CITY": "Los Angeles", "Lon": -118.22611959695401, "Lat": 34.067102266985998 }, "geometry": { "type": "Point", "coordinates": [ -118.226119596954007, 34.067102266985998 ] } },
{ "type": "Feature", "properties": { "X": -13164104.4188, "Y": 4021859.6727999998, "OBJECTID": 498, "Owner": "LADWP", "Path": "LADWP-S", "Source": "CEC", "Type": "SUBSTATION", "HIFLD_ID": 304073, "Name": "Station B (Century)", "Max_Voltage": 287, "ZIP_CODE": 90002, "STATE": "CA", "COUNTY": "Los Angeles County", "CITY": "Los Angeles", "Lon": -118.25516201176799, "Lat": 33.948281986738699 }, "geometry": { "type": "Point", "coordinates": [ -118.255162011767993, 33.948281986738699 ] } },
{ "type": "Feature", "properties": { "X": -13175757.177300001, "Y": 4052488.3325999998, "OBJECTID": 501, "Owner": "LADWP", "Path": "LADWP-N", "Source": "CEC", "Type": "SUBSTATION", "HIFLD_ID": 300429, "Name": "Station E (Toluca)", "Max_Voltage": 500, "ZIP_CODE": 91601, "STATE": "CA", "COUNTY": "Los Angeles County", "CITY": "Los Angeles", "Lon": -118.35984052184401, "Lat": 34.176217403654299 }, "geometry": { "type": "Point", "coordinates": [ -118.359840521844006, 34.176217403654299 ] } },
{ "type": "Feature", "properties": { "X": -13158391.318, "Y": 4030875.1469000001, "OBJECTID": 502, "Owner": "LADWP", "Path": null, "Source": "CEC", "Type": "SUBSTATION", "HIFLD_ID": 308269, "Name": "Station F (Velasco & Kinetic)", "Max_Voltage": 230, "ZIP_CODE": 90023, "STATE": "CA", "COUNTY": "Los Angeles County", "CITY": "Los Angeles", "Lon": -118.203840354147, "Lat": 34.015437897069198 }, "geometry": { "type": "Point", "coordinates": [ -118.203840354147005, 34.015437897069198 ] } },
{ "type": "Feature", "properties": { "X": -13164022.911900001, "Y": 4043503.6851, "OBJECTID": 503, "Owner": "LADWP", "Path": null, "Source": "CEC", "Type": "SUBSTATION", "HIFLD_ID": 301194, "Name": "Station G (Atwater)", "Max_Voltage": 230, "ZIP_CODE": 90039, "STATE": "CA", "COUNTY": "Los Angeles County", "CITY": "Los Angeles", "Lon": -118.254429822204, "Lat": 34.109418113171301 }, "geometry": { "type": "Point", "coordinates": [ -118.254429822204003, 34.109418113171301 ] } },
{ "type": "Feature", "properties": { "X": -13174369.933, "Y": 4040650.1387, "OBJECTID": 504, "Owner": "LADWP", "Path": null, "Source": "CEC", "Type": "SUBSTATION", "HIFLD_ID": 303899, "Name": "Station H (Hollywood)", "Max_Voltage": 230, "ZIP_CODE": 90046, "STATE": "CA", "COUNTY": "Los Angeles County", "CITY": "Los Angeles", "Lon": -118.347378694177, "Lat": 34.0881914447734 }, "geometry": { "type": "Point", "coordinates": [ -118.347378694176996, 34.0881914447734 ] } },
{ "type": "Feature", "properties": { "X": -13196202.832800001, "Y": 4059640.1127, "OBJECTID": 505, "Owner": "LADWP", "Path": null, "Source": "CEC", "Type": "SUBSTATION", "HIFLD_ID": 300493, "Name": "Station J", "Max_Voltage": 230, "ZIP_CODE": 91324, "STATE": "CA", "COUNTY": "Los Angeles County", "CITY": "Los Angeles", "Lon": -118.54350697016299, "Lat": 34.229351877874997 }, "geometry": { "type": "Point", "coordinates": [ -118.543506970162994, 34.229351877874997 ] } },
{ "type": "Feature", "properties": { "X": -13186910.7754, "Y": 4033273.7440999998, "OBJECTID": 506, "Owner": "LADWP", "Path": null, "Source": "CEC", "Type": "SUBSTATION", "HIFLD_ID": 301105, "Name": "Station K (Olympic)", "Max_Voltage": 230, "ZIP_CODE": 90025, "STATE": "CA", "COUNTY": "Los Angeles County", "CITY": "Los Angeles", "Lon": -118.460034998278, "Lat": 34.033296014255598 }, "geometry": { "type": "Point", "coordinates": [ -118.460034998278005, 34.033296014255598 ] } },
{ "type": "Feature", "properties": { "X": -13183051.637800001, "Y": 4017961.4404000002, "OBJECTID": 507, "Owner": "LADWP", "Path": null, "Source": "CEC", "Type": "SUBSTATION", "HIFLD_ID": 309553, "Name": "Station L (Scattergood)", "Max_Voltage": 230, "ZIP_CODE": 90293, "STATE": "CA", "COUNTY": "Los Angeles County", "CITY": "Los Angeles", "Lon": -118.425367775485, "Lat": 33.919227782106397 }, "geometry": { "type": "Point", "coordinates": [ -118.425367775485, 33.919227782106397 ] } },
{ "type": "Feature", "properties": { "X": -13179398.921599999, "Y": 4061468.8094000001, "OBJECTID": 508, "Owner": "LADWP", "Path": "LADWP-N", "Source": "CEC", "Type": "SUBSTATION", "HIFLD_ID": 309569, "Name": "Station M (Valley)", "Max_Voltage": 230, "ZIP_CODE": 91352, "STATE": "CA", "COUNTY": "Los Angeles County", "CITY": "Los Angeles", "Lon": -118.392554867429, "Lat": 34.2429328853814 }, "geometry": { "type": "Point", "coordinates": [ -118.392554867428998, 34.2429328853814 ] } },
{ "type": "Feature", "properties": { "X": -13163098.942299999, "Y": 4034624.8053000001, "OBJECTID": 509, "Owner": "LADWP", "Path": null, "Source": "CEC", "Type": "SUBSTATION", "HIFLD_ID": 306012, "Name": "Station P (Market)", "Max_Voltage": 230, "ZIP_CODE": 90013, "STATE": "CA", "COUNTY": "Los Angeles County", "CITY": "Los Angeles", "Lon": -118.246129662759, "Lat": 34.043353326944398 }, "geometry": { "type": "Point", "coordinates": [ -118.246129662759003, 34.043353326944398 ] } },
{ "type": "Feature", "properties": { "X": -13182805.1971, "Y": 4051865.3616999998, "OBJECTID": 511, "Owner": "LADWP", "Path": null, "Source": "CEC", "Type": "SUBSTATION", "HIFLD_ID": 304217, "Name": "Station S (Van Nuys)", "Max_Voltage": 230, "ZIP_CODE": 91401, "STATE": "CA", "COUNTY": "Los Angeles County", "CITY": "Los Angeles", "Lon": -118.42315396165201, "Lat": 34.171587427841096 }, "geometry": { "type": "Point", "coordinates": [ -118.423153961652005, 34.171587427841096 ] } },
{ "type": "Feature", "properties": { "X": -13201555.22, "Y": 4054276.5792, "OBJECTID": 512, "Owner": "LADWP", "Path": null, "Source": "CEC", "Type": "SUBSTATION", "HIFLD_ID": 308991, "Name": "Station T", "Max_Voltage": 230, "ZIP_CODE": 91303, "STATE": "CA", "COUNTY": "Los Angeles County", "CITY": "Los Angeles", "Lon": -118.59158828232, "Lat": 34.189506403007798 }, "geometry": { "type": "Point", "coordinates": [ -118.591588282320004, 34.189506403007798 ] } },
{ "type": "Feature", "properties": { "X": -13196235.5129, "Y": 4052910.1071000001, "OBJECTID": 513, "Owner": "LADWP", "Path": null, "Source": "CEC", "Type": "SUBSTATION", "HIFLD_ID": 303620, "Name": "Station U (Tarzana)", "Max_Voltage": 230, "ZIP_CODE": 91356, "STATE": "CA", "COUNTY": "Los Angeles County", "CITY": "Los Angeles", "Lon": -118.543800541001, "Lat": 34.179351925581699 }, "geometry": { "type": "Point", "coordinates": [ -118.543800541001005, 34.179351925581699 ] } },
{ "type": "Feature", "properties": { "X": -13190256.0649, "Y": 4070789.7415999998, "OBJECTID": 514, "Owner": "LADWP", "Path": null, "Source": "CEC", "Type": "SUBSTATION", "HIFLD_ID": 310199, "Name": "Sylmar West", "Max_Voltage": 230, "ZIP_CODE": 91344, "STATE": "CA", "COUNTY": "Los Angeles County", "CITY": "Los Angeles", "Lon": -118.4900862456, "Lat": 34.3121217113653 }, "geometry": { "type": "Point", "coordinates": [ -118.490086245599997, 34.3121217113653 ] } },
{ "type": "Feature", "properties": { "X": -13162803.676200001, "Y": 4004322.2867000001, "OBJECTID": 530, "Owner": "SCE", "Path": null, "Source": "CEC", "Type": "SUBSTATION", "HIFLD_ID": 306365, "Name": "Arcogen", "Max_Voltage": 230, "ZIP_CODE": 90745, "STATE": "CA", "COUNTY": "Los Angeles County", "CITY": "Carson", "Lon": -118.243477242255, "Lat": 33.817494822888598 }, "geometry": { "type": "Point", "coordinates": [ -118.243477242254997, 33.817494822888598 ] } },
{ "type": "Feature", "properties": { "X": -13160472.845899999, "Y": 4004560.0059000002, "OBJECTID": 613, "Owner": "SCE", "Path": null, "Source": "CEC", "Type": "SUBSTATION", "HIFLD_ID": 300390, "Name": "Hinson", "Max_Voltage": 230, "ZIP_CODE": 90810, "STATE": "CA", "COUNTY": "Los Angeles County", "CITY": "Long Beach", "Lon": -118.22253903742499, "Lat": 33.819268982610303 }, "geometry": { "type": "Point", "coordinates": [ -118.222539037424994, 33.819268982610303 ] } },
{ "type": "Feature", "properties": { "X": -13158362.1052, "Y": 4030812.9353, "OBJECTID": 624, "Owner": "SCE", "Path": null, "Source": "CEC", "Type": null, "HIFLD_ID": null, "Name": "Kinetic", "Max_Voltage": 230, "ZIP_CODE": 90023, "STATE": "CA", "COUNTY": "Los Angeles County", "CITY": "Los Angeles", "Lon": -118.20357793063, "Lat": 34.014974667043397 }, "geometry": { "type": "Point", "coordinates": [ -118.203577930630004, 34.014974667043397 ] } },
{ "type": "Feature", "properties": { "X": -13208877.9486, "Y": 4107963.6346999998, "OBJECTID": 674, "Owner": "LADWP", "Path": null, "Source": "CEC", "Type": "SUBSTATION", "HIFLD_ID": 309730, "Name": "Castaic", "Max_Voltage": 230, "ZIP_CODE": 91384, "STATE": "CA", "COUNTY": "Los Angeles County", "CITY": "Unincorporated", "Lon": -118.65736947293701, "Lat": 34.5874944649795 }, "geometry": { "type": "Point", "coordinates": [ -118.657369472937006, 34.5874944649795 ] } },
{ "type": "Feature", "properties": { "X": -13148889.131899999, "Y": 4094243.5419000001, "OBJECTID": 756, "Owner": "SCE", "Path": "26, LADWP-N", "Source": "CEC", "Type": "SUBSTATION", "HIFLD_ID": 309672, "Name": "Vincent", "Max_Voltage": 500, "ZIP_CODE": 93550, "STATE": "CA", "COUNTY": "Los Angeles County", "CITY": "Unincorporated", "Lon": -118.118480763665, "Lat": 34.485965966324201 }, "geometry": { "type": "Point", "coordinates": [ -118.118480763665005, 34.485965966324201 ] } },
{ "type": "Feature", "properties": { "X": -13349108.327, "Y": 4418610.1596, "OBJECTID": 779, "Owner": "PG&E", "Path": "H4", "Source": "CEC", "Type": "SUBSTATION", "HIFLD_ID": 306523, "Name": "Gregg", "Max_Voltage": 230, "ZIP_CODE": 93636, "STATE": "CA", "COUNTY": "Madera County", "CITY": "Unincorporated", "Lon": -119.91708039546501, "Lat": 36.852809641082096 }, "geometry": { "type": "Point", "coordinates": [ -119.917080395465007, 36.852809641082096 ] } },
{ "type": "Feature", "properties": { "X": -13362077.4241, "Y": 4436757.2828000002, "OBJECTID": 784, "Owner": "PG&E", "Path": "15", "Source": "CEC", "Type": "SUBSTATION", "HIFLD_ID": 305900, "Name": "Storey", "Max_Voltage": 230, "ZIP_CODE": 93638, "STATE": "CA", "COUNTY": "Madera County", "CITY": "Unincorporated", "Lon": -120.03358377642201, "Lat": 36.983142164277801 }, "geometry": { "type": "Point", "coordinates": [ -120.033583776422006, 36.983142164277801 ] } },
{ "type": "Feature", "properties": { "X": -13641153.1546, "Y": 4590298.9512999998, "OBJECTID": 791, "Owner": "PG&E", "Path": "North Bay", "Source": "CEC", "Type": "SUBSTATION", "HIFLD_ID": 301273, "Name": "Ignacio", "Max_Voltage": 230, "ZIP_CODE": 94945, "STATE": "CA", "COUNTY": "Marin County", "CITY": "Novato", "Lon": -122.54056371767599, "Lat": 38.076928600793899 }, "geometry": { "type": "Point", "coordinates": [ -122.540563717675994, 38.076928600793899 ] } },
{ "type": "Feature", "properties": { "X": -13403665.284399999, "Y": 4480081.5643999996, "OBJECTID": 839, "Owner": "PG&E", "Path": "15", "Source": "CEC", "Type": "SUBSTATION", "HIFLD_ID": 307365, "Name": "Wilson", "Max_Voltage": 230, "ZIP_CODE": 95340, "STATE": "CA", "COUNTY": "Merced County", "CITY": "Merced", "Lon": -120.40717388157999, "Lat": 37.293395088050801 }, "geometry": { "type": "Point", "coordinates": [ -120.407173881579993, 37.293395088050801 ] } },
{ "type": "Feature", "properties": { "X": -13472007.517899999, "Y": 4446568.4534999998, "OBJECTID": 840, "Owner": "PG&E", "Path": "15X,15", "Source": "CEC", "Type": "SUBSTATION", "HIFLD_ID": 310440, "Name": "Los Banos", "Max_Voltage": 500, "ZIP_CODE": 95322, "STATE": "CA", "COUNTY": "Merced County", "CITY": "Unincorporated", "Lon": -121.021102611402, "Lat": 37.053513121882503 }, "geometry": { "type": "Point", "coordinates": [ -121.021102611402, 37.053513121882503 ] } },
{ "type": "Feature", "properties": { "X": -13417673.047800001, "Y": 5086483.6895000003, "OBJECTID": 842, "Owner": "Other", "Path": null, "Source": "CEC", "Type": "SUBSTATION", "HIFLD_ID": 306796, "Name": "Warner", "Max_Voltage": 230, "ZIP_CODE": 96101, "STATE": "CA", "COUNTY": "Modoc County", "CITY": "Unincorporated", "Lon": -120.533007761573, "Lat": 41.5007403448137 }, "geometry": { "type": "Point", "coordinates": [ -120.533007761573003, 41.5007403448137 ] } },
{ "type": "Feature", "properties": { "X": -13417724.176100001, "Y": 5086353.4951999998, "OBJECTID": 850, "Owner": "PCORP", "Path": null, "Source": "CEC", "Type": "SUBSTATION", "HIFLD_ID": 306530, "Name": "Alturas", "Max_Voltage": 230, "ZIP_CODE": 96101, "STATE": "CA", "COUNTY": "Modoc County", "CITY": "Unincorporated", "Lon": -120.53346705469001, "Lat": 41.499864403672099 }, "geometry": { "type": "Point", "coordinates": [ -120.533467054690007, 41.499864403672099 ] } },
{ "type": "Feature", "properties": { "X": -13485892.872, "Y": 4337165.6677000001, "OBJECTID": 868, "Owner": "PG&E", "Path": null, "Source": "CEC", "Type": "SUBSTATION", "HIFLD_ID": 307786, "Name": "Coburn", "Max_Voltage": 230, "ZIP_CODE": 93930, "STATE": "CA", "COUNTY": "Monterey County", "CITY": "Unincorporated", "Lon": -121.14583686925199, "Lat": 36.265138856000704 }, "geometry": { "type": "Point", "coordinates": [ -121.145836869251994, 36.265138856000704 ] } },
{ "type": "Feature", "properties": { "X": -13610805.821699999, "Y": 4614495.1412000004, "OBJECTID": 903, "Owner": "PG&E", "Path": null, "Source": "CEC", "Type": "SUBSTATION", "HIFLD_ID": 304349, "Name": "Tulucay", "Max_Voltage": 230, "ZIP_CODE": 94558, "STATE": "CA", "COUNTY": "Napa County", "CITY": "Unincorporated", "Lon": -122.267948988, "Lat": 38.247829020839603 }, "geometry": { "type": "Point", "coordinates": [ -122.267948988, 38.247829020839603 ] } },
{ "type": "Feature", "properties": { "X": -13109876.0189, "Y": 3983895.215, "OBJECTID": 969, "Owner": "SCE", "Path": "43", "Source": "CEC", "Type": "SUBSTATION", "HIFLD_ID": 308912, "Name": "Santiago", "Max_Voltage": 230, "ZIP_CODE": 92618, "STATE": "CA", "COUNTY": "Orange County", "CITY": "Irvine", "Lon": -117.76802000677201, "Lat": 33.664904987736797 }, "geometry": { "type": "Point", "coordinates": [ -117.768020006772005, 33.664904987736797 ] } },
{ "type": "Feature", "properties": { "X": -13112288.8485, "Y": 4005845.8325999998, "OBJECTID": 970, "Owner": "SCE", "Path": "43", "Source": "CEC", "Type": "SUBSTATION", "HIFLD_ID": 301664, "Name": "Serrano", "Max_Voltage": 500, "ZIP_CODE": 92867, "STATE": "CA", "COUNTY": "Orange County", "CITY": "Orange", "Lon": -117.78969482417899, "Lat": 33.8288647990531 }, "geometry": { "type": "Point", "coordinates": [ -117.789694824178994, 33.8288647990531 ] } },
{ "type": "Feature", "properties": { "X": -12925908.290899999, "Y": 3984953.6777, "OBJECTID": 1034, "Owner": "IID", "Path": "42", "Source": "CEC", "Type": "SUBSTATION", "HIFLD_ID": 305826, "Name": "Coachella Valley", "Max_Voltage": 230, "ZIP_CODE": 92236, "STATE": "CA", "COUNTY": "Riverside County", "CITY": "Coachella", "Lon": -116.11540978805201, "Lat": 33.672818350099398 }, "geometry": { "type": "Point", "coordinates": [ -116.115409788052006, 33.672818350099398 ] } },
{ "type": "Feature", "properties": { "X": -12871494.7279, "Y": 3989219.8719000001, "OBJECTID": 1046, "Owner": "SCE", "Path": "46", "Source": "CEC", "Type": "SUBSTATION", "HIFLD_ID": 309638, "Name": "Julian Hinds", "Max_Voltage": 230, "ZIP_CODE": 92239, "STATE": "CA", "COUNTY": "Riverside County", "CITY": "Unincorporated", "Lon": -115.62660443514601, "Lat": 33.704706224403701 }, "geometry": { "type": "Point", "coordinates": [ -115.626604435146007, 33.704706224403701 ] } },
{ "type": "Feature", "properties": { "X": -12954261.428400001, "Y": 4004457.281, "OBJECTID": 1074, "Owner": "SCE", "Path": null, "Source": "CEC", "Type": "SUBSTATION", "HIFLD_ID": 304250, "Name": "Mirage", "Max_Voltage": 230, "ZIP_CODE": 92276, "STATE": "CA", "COUNTY": "Riverside County", "CITY": "Unincorporated", "Lon": -116.37011035646501, "Lat": 33.818502324745097 }, "geometry": { "type": "Point", "coordinates": [ -116.370110356465005, 33.818502324745097 ] } },
{ "type": "Feature", "properties": { "X": -13041758.932600001, "Y": 3993942.8331, "OBJECTID": 1088, "Owner": "SCE", "Path": null, "Source": "CEC", "Type": "SUBSTATION", "HIFLD_ID": 308877, "Name": "Valley", "Max_Voltage": 500, "ZIP_CODE": 92585, "STATE": "CA", "COUNTY": "Riverside County", "CITY": "Menifee", "Lon": -117.156113809495, "Lat": 33.739994423929502 }, "geometry": { "type": "Point", "coordinates": [ -117.156113809494997, 33.739994423929502 ] } },
{ "type": "Feature", "properties": { "X": -13484882.1426, "Y": 4672727.6873000003, "OBJECTID": 1095, "Owner": "PG&E", "Path": null, "Source": "CEC", "Type": "SUBSTATION", "HIFLD_ID": 300336, "Name": "Gold Hill", "Max_Voltage": 230, "ZIP_CODE": 95630, "STATE": "CA", "COUNTY": "Sacramento County", "CITY": "Folsom", "Lon": -121.136757332671, "Lat": 38.657487587905699 }, "geometry": { "type": "Point", "coordinates": [ -121.136757332670996, 38.657487587905699 ] } },
{ "type": "Feature", "properties": { "X": -13506292.6061, "Y": 4670754.5170999998, "OBJECTID": 1125, "Owner": "SMUD", "Path": null, "Source": "CEC", "Type": "SUBSTATION", "HIFLD_ID": 302331, "Name": "Carmichael", "Max_Voltage": 230, "ZIP_CODE": 95608, "STATE": "CA", "COUNTY": "Sacramento County", "CITY": "Unincorporated", "Lon": -121.329090798829, "Lat": 38.643644676540497 }, "geometry": { "type": "Point", "coordinates": [ -121.329090798829, 38.643644676540497 ] } },
{ "type": "Feature", "properties": { "X": -13508237.7147, "Y": 4677857.6967000002, "OBJECTID": 1143, "Owner": "SMUD", "Path": null, "Source": "CEC", "Type": null, "HIFLD_ID": null, "Name": "Don Julio-Elkhorn", "Max_Voltage": 230, "ZIP_CODE": 95842, "STATE": "CA", "COUNTY": "Sacramento County", "CITY": "Unincorporated", "Lon": -121.346564006004, "Lat": 38.6934650049037 }, "geometry": { "type": "Point", "coordinates": [ -121.346564006004002, 38.6934650049037 ] } },
{ "type": "Feature", "properties": { "X": -13508240.164100001, "Y": 4680867.8294000002, "OBJECTID": 1144, "Owner": "SMUD", "Path": null, "Source": "CEC", "Type": "SUBSTATION", "HIFLD_ID": 309891, "Name": "Don Julio-Lorac Vista", "Max_Voltage": 230, "ZIP_CODE": 95843, "STATE": "CA", "COUNTY": "Sacramento County", "CITY": "Unincorporated", "Lon": -121.346586009639, "Lat": 38.714567033417701 }, "geometry": { "type": "Point", "coordinates": [ -121.346586009638997, 38.714567033417701 ] } },
{ "type": "Feature", "properties": { "X": -13508957.9132, "Y": 4632213.8272000002, "OBJECTID": 1154, "Owner": "SMUD", "Path": null, "Source": "CEC", "Type": "SUBSTATION", "HIFLD_ID": 300863, "Name": "Elk Grove", "Max_Voltage": 230, "ZIP_CODE": 95624, "STATE": "CA", "COUNTY": "Sacramento County", "CITY": "Elk Grove", "Lon": -121.353033659818, "Lat": 38.372723861291199 }, "geometry": { "type": "Point", "coordinates": [ -121.353033659817996, 38.372723861291199 ] } },
{ "type": "Feature", "properties": { "X": -13522924.6346, "Y": 4680766.8179000001, "OBJECTID": 1157, "Owner": "WAPA", "Path": null, "Source": "CEC", "Type": "SUBSTATION", "HIFLD_ID": 304459, "Name": "Elverta", "Max_Voltage": 230, "ZIP_CODE": 95626, "STATE": "CA", "COUNTY": "Sacramento County", "CITY": "Unincorporated", "Lon": -121.47849885247901, "Lat": 38.713859010596401 }, "geometry": { "type": "Point", "coordinates": [ -121.478498852479007, 38.713859010596401 ] } },
{ "type": "Feature", "properties": { "X": -13508323.125299999, "Y": 4677863.8042000001, "OBJECTID": 1167, "Owner": "SMUD", "Path": null, "Source": "CEC", "Type": "SUBSTATION", "HIFLD_ID": 300551, "Name": "Foothill", "Max_Voltage": 230, "ZIP_CODE": 95842, "STATE": "CA", "COUNTY": "Sacramento County", "CITY": "Unincorporated", "Lon": -121.34733126312, "Lat": 38.6935078263203 }, "geometry": { "type": "Point", "coordinates": [ -121.347331263119997, 38.6935078263203 ] } },
{ "type": "Feature", "properties": { "X": -13509217.5241, "Y": 4651475.1423000004, "OBJECTID": 1189, "Owner": "SMUD", "Path": null, "Source": "CEC", "Type": "SUBSTATION", "HIFLD_ID": 306165, "Name": "Hedge", "Max_Voltage": 230, "ZIP_CODE": 95829, "STATE": "CA", "COUNTY": "Sacramento County", "CITY": "Unincorporated", "Lon": -121.35536578407699, "Lat": 38.508248204201102 }, "geometry": { "type": "Point", "coordinates": [ -121.355365784076994, 38.508248204201102 ] } },
{ "type": "Feature", "properties": { "X": -13513900.5449, "Y": 4654972.6708000004, "OBJECTID": 1193, "Owner": "SMUD", "Path": null, "Source": "CEC", "Type": "SUBSTATION", "HIFLD_ID": 300293, "Name": "Hunt-Wesson", "Max_Voltage": 230, "ZIP_CODE": 95826, "STATE": "CA", "COUNTY": "Sacramento County", "CITY": "Sacramento", "Lon": -121.39743407517101, "Lat": 38.532829826002597 }, "geometry": { "type": "Point", "coordinates": [ -121.397434075171006, 38.532829826002597 ] } },
{ "type": "Feature", "properties": { "X": -13516211.4087, "Y": 4662729.1377999997, "OBJECTID": 1194, "Owner": "SMUD", "Path": null, "Source": "CEC", "Type": "SUBSTATION", "HIFLD_ID": 304404, "Name": "Hurley", "Max_Voltage": 230, "ZIP_CODE": 95825, "STATE": "CA", "COUNTY": "Sacramento County", "CITY": "Unincorporated", "Lon": -121.418192918622, "Lat": 38.587314516630698 }, "geometry": { "type": "Point", "coordinates": [ -121.418192918621997, 38.587314516630698 ] } },
{ "type": "Feature", "properties": { "X": -13484398.987500001, "Y": 4672676.387, "OBJECTID": 1206, "Owner": "SMUD", "Path": null, "Source": "CEC", "Type": "SUBSTATION", "HIFLD_ID": 306805, "Name": "Lake", "Max_Voltage": 230, "ZIP_CODE": 95630, "STATE": "CA", "COUNTY": "Sacramento County", "CITY": "Folsom", "Lon": -121.13241707606601, "Lat": 38.657127721517199 }, "geometry": { "type": "Point", "coordinates": [ -121.132417076066005, 38.657127721517199 ] } },
{ "type": "Feature", "properties": { "X": -13522454.494000001, "Y": 4662844.5658999998, "OBJECTID": 1223, "Owner": "SMUD", "Path": null, "Source": "CEC", "Type": "SUBSTATION", "HIFLD_ID": 310249, "Name": "North City", "Max_Voltage": 230, "ZIP_CODE": 95816, "STATE": "CA", "COUNTY": "Sacramento County", "CITY": "Sacramento", "Lon": -121.47427550795901, "Lat": 38.588125020395502 }, "geometry": { "type": "Point", "coordinates": [ -121.474275507959007, 38.588125020395502 ] } },
{ "type": "Feature", "properties": { "X": -13523794.6017, "Y": 4671715.3386000004, "OBJECTID": 1224, "Owner": "SMUD", "Path": null, "Source": "CEC", "Type": "SUBSTATION", "HIFLD_ID": 306381, "Name": "Natomas", "Max_Voltage": 230, "ZIP_CODE": 95834, "STATE": "CA", "COUNTY": "Sacramento County", "CITY": "Unincorporated", "Lon": -121.48631389974, "Lat": 38.650385720233601 }, "geometry": { "type": "Point", "coordinates": [ -121.486313899739997, 38.650385720233601 ] } },
{ "type": "Feature", "properties": { "X": -13499310.8928, "Y": 4676648.3028999995, "OBJECTID": 1228, "Owner": "SMUD", "Path": null, "Source": "CEC", "Type": "SUBSTATION", "HIFLD_ID": 309378, "Name": "Orangevale", "Max_Voltage": 230, "ZIP_CODE": 95610, "STATE": "CA", "COUNTY": "Sacramento County", "CITY": "Citrus Heights", "Lon": -121.26637300073899, "Lat": 38.684984998982898 }, "geometry": { "type": "Point", "coordinates": [ -121.266373000738994, 38.684984998982898 ] } },
{ "type": "Feature", "properties": { "X": -13521982.5232, "Y": 4648828.8865, "OBJECTID": 1234, "Owner": "SMUD", "Path": null, "Source": "CEC", "Type": "SUBSTATION", "HIFLD_ID": 300106, "Name": "Pocket", "Max_Voltage": 230, "ZIP_CODE": 95822, "STATE": "CA", "COUNTY": "Sacramento County", "CITY": "Sacramento", "Lon": -121.470035721798, "Lat": 38.489643989940099 }, "geometry": { "type": "Point", "coordinates": [ -121.470035721797998, 38.489643989940099 ] } },
{ "type": "Feature", "properties": { "X": -13525006.8795, "Y": 4662271.6404, "OBJECTID": 1257, "Owner": "SMUD", "Path": null, "Source": "CEC", "Type": "SUBSTATION", "HIFLD_ID": 301853, "Name": "Station A", "Max_Voltage": 230, "ZIP_CODE": 95814, "STATE": "CA", "COUNTY": "Sacramento County", "CITY": "Sacramento", "Lon": -121.497203976832, "Lat": 38.5841020088153 }, "geometry": { "type": "Point", "coordinates": [ -121.497203976831997, 38.5841020088153 ] } },
{ "type": "Feature", "properties": { "X": -13523427.9241, "Y": 4660533.6988000004, "OBJECTID": 1258, "Owner": "SMUD", "Path": null, "Source": "CEC", "Type": "SUBSTATION", "HIFLD_ID": 309959, "Name": "Station B", "Max_Voltage": 230, "ZIP_CODE": 95811, "STATE": "CA", "COUNTY": "Sacramento County", "CITY": "Sacramento", "Lon": -121.48301997870099, "Lat": 38.571897019438403 }, "geometry": { "type": "Point", "coordinates": [ -121.483019978700995, 38.571897019438403 ] } },
{ "type": "Feature", "properties": { "X": -13525374.895500001, "Y": 4660549.8254000004, "OBJECTID": 1259, "Owner": "SMUD", "Path": null, "Source": "CEC", "Type": "SUBSTATION", "HIFLD_ID": 300360, "Name": "Station D", "Max_Voltage": 230, "ZIP_CODE": 95811, "STATE": "CA", "COUNTY": "Sacramento County", "CITY": "Sacramento", "Lon": -121.500509921028, "Lat": 38.572010281121599 }, "geometry": { "type": "Point", "coordinates": [ -121.500509921027998, 38.572010281121599 ] } },
{ "type": "Feature", "properties": { "X": -13518378.1208, "Y": 4651495.9978, "OBJECTID": 1283, "Owner": "SMUD", "Path": null, "Source": "CEC", "Type": "SUBSTATION", "HIFLD_ID": 303252, "Name": "Wire-48Th", "Max_Voltage": 230, "ZIP_CODE": 95823, "STATE": "CA", "COUNTY": "Sacramento County", "CITY": "Unincorporated", "Lon": -121.437656824567, "Lat": 38.508394807893197 }, "geometry": { "type": "Point", "coordinates": [ -121.437656824567, 38.508394807893197 ] } },
{ "type": "Feature", "properties": { "X": -13060234.2696, "Y": 4104744.2439000001, "OBJECTID": 1288, "Owner": "LADWP", "Path": "27, LADWP-N, LADWP-S", "Source": "CEC", "Type": "SUBSTATION", "HIFLD_ID": 300891, "Name": "Victorville", "Max_Voltage": 500, "ZIP_CODE": 92394, "STATE": "CA", "COUNTY": "San Bernardino County", "CITY": "Victorville", "Lon": -117.322080585466, "Lat": 34.5636821370341 }, "geometry": { "type": "Point", "coordinates": [ -117.322080585465997, 34.5636821370341 ] } },
{ "type": "Feature", "properties": { "X": -12797986.6874, "Y": 4142817.3851000001, "OBJECTID": 1290, "Owner": "Other", "Path": null, "Source": "CEC", "Type": "SUBSTATION", "HIFLD_ID": 305759, "Name": "Camino", "Max_Voltage": 230, "ZIP_CODE": 92363, "STATE": "CA", "COUNTY": "San Bernardino County", "CITY": "Unincorporated", "Lon": -114.966270472829, "Lat": 34.844854191886697 }, "geometry": { "type": "Point", "coordinates": [ -114.966270472828995, 34.844854191886697 ] } },
{ "type": "Feature", "properties": { "X": -12709489.437200001, "Y": 4067965.2821, "OBJECTID": 1291, "Owner": "Other", "Path": null, "Source": "CEC", "Type": "SUBSTATION", "HIFLD_ID": 306492, "Name": "Gene", "Max_Voltage": 230, "ZIP_CODE": 92267, "STATE": "CA", "COUNTY": "San Bernardino County", "CITY": "Unincorporated", "Lon": -114.17128614812199, "Lat": 34.291161900288799 }, "geometry": { "type": "Point", "coordinates": [ -114.171286148121993, 34.291161900288799 ] } },
{ "type": "Feature", "properties": { "X": -13065416.182, "Y": 4078138.1448, "OBJECTID": 1335, "Owner": "SCE", "Path": "46, 61, LM", "Source": "CEC", "Type": "SUBSTATION", "HIFLD_ID": 307508, "Name": "Lugo", "Max_Voltage": 500, "ZIP_CODE": 92344, "STATE": "CA", "COUNTY": "San Bernardino County", "CITY": "Unincorporated", "Lon": -117.368630496878, "Lat": 34.366628389936899 }, "geometry": { "type": "Point", "coordinates": [ -117.368630496877998, 34.366628389936899 ] } },
{ "type": "Feature", "properties": { "X": -12709621.1666, "Y": 4068318.4532, "OBJECTID": 1368, "Owner": "SCE", "Path": null, "Source": "CEC", "Type": null, "HIFLD_ID": null, "Name": "Whipple", "Max_Voltage": 230, "ZIP_CODE": 92267, "STATE": "CA", "COUNTY": "San Bernardino County", "CITY": "Unincorporated", "Lon": -114.17246949328801, "Lat": 34.293783006116897 }, "geometry": { "type": "Point", "coordinates": [ -114.172469493288006, 34.293783006116897 ] } },
{ "type": "Feature", "properties": { "X": -13052256.987500001, "Y": 3908736.5356000001, "OBJECTID": 1377, "Owner": "SDG&E", "Path": null, "Source": "CEC", "Type": "SUBSTATION", "HIFLD_ID": 307345, "Name": "Batiquitos", "Max_Voltage": 230, "ZIP_CODE": 92009, "STATE": "CA", "COUNTY": "San Diego County", "CITY": "Carlsbad", "Lon": -117.25041944097001, "Lat": 33.101141664741398 }, "geometry": { "type": "Point", "coordinates": [ -117.250419440970006, 33.101141664741398 ] } },
{ "type": "Feature", "properties": { "X": -13048769.340700001, "Y": 3884298.8577000001, "OBJECTID": 1395, "Owner": "SDG&E", "Path": null, "Source": "CEC", "Type": "SUBSTATION", "HIFLD_ID": 300151, "Name": "Doublett", "Max_Voltage": 230, "ZIP_CODE": 92130, "STATE": "CA", "COUNTY": "San Diego County", "CITY": "San Diego", "Lon": -117.21908937737, "Lat": 32.917049628335299 }, "geometry": { "type": "Point", "coordinates": [ -117.219089377369997, 32.917049628335299 ] } },
{ "type": "Feature", "properties": { "X": -13061730.0045, "Y": 3913498.0521, "OBJECTID": 1399, "Owner": "SDG&E", "Path": null, "Source": "CEC", "Type": "SUBSTATION", "HIFLD_ID": 309677, "Name": "Encina", "Max_Voltage": 230, "ZIP_CODE": 92008, "STATE": "CA", "COUNTY": "San Diego County", "CITY": "Carlsbad", "Lon": -117.33551700076499, "Lat": 33.136965997504397 }, "geometry": { "type": "Point", "coordinates": [ -117.335517000764995, 33.136965997504397 ] } },
{ "type": "Feature", "properties": { "X": -13037371.7599, "Y": 3912025.5480999998, "OBJECTID": 1402, "Owner": "SDG&E", "Path": null, "Source": "CEC", "Type": "SUBSTATION", "HIFLD_ID": 305776, "Name": "Escondido", "Max_Voltage": 230, "ZIP_CODE": 92029, "STATE": "CA", "COUNTY": "San Diego County", "CITY": "Escondido", "Lon": -117.116703166932, "Lat": 33.1258888454716 }, "geometry": { "type": "Point", "coordinates": [ -117.116703166931998, 33.1258888454716 ] } },
{ "type": "Feature", "properties": { "X": -13042682.012599999, "Y": 3865041.7352, "OBJECTID": 1403, "Owner": "SDG&E", "Path": null, "Source": "CEC", "Type": null, "HIFLD_ID": null, "Name": "Fashion Valley", "Max_Voltage": 230, "ZIP_CODE": 92111, "STATE": "CA", "COUNTY": "San Diego County", "CITY": "San Diego", "Lon": -117.164405978378, "Lat": 32.771712988112597 }, "geometry": { "type": "Point", "coordinates": [ -117.164405978377999, 32.771712988112597 ] } },
{ "type": "Feature", "properties": { "X": -13013160.445699999, "Y": 3876684.8235, "OBJECTID": 1421, "Owner": "SDG&E", "Path": null, "Source": "CEC", "Type": "SUBSTATION", "HIFLD_ID": 301288, "Name": "Los Coches", "Max_Voltage": 230, "ZIP_CODE": 92040, "STATE": "CA", "COUNTY": "San Diego County", "CITY": "Unincorporated", "Lon": -116.899209230891, "Lat": 32.859613721060398 }, "geometry": { "type": "Point", "coordinates": [ -116.899209230891003, 32.859613721060398 ] } },
{ "type": "Feature", "properties": { "X": -13022486.4989, "Y": 3852680.6192000001, "OBJECTID": 1425, "Owner": "SDG&E", "Path": "Southwest Powerlink", "Source": "CEC", "Type": "SUBSTATION", "HIFLD_ID": 305518, "Name": "Miguel", "Max_Voltage": 500, "ZIP_CODE": 91902, "STATE": "CA", "COUNTY": "San Diego County", "CITY": "Unincorporated", "Lon": -116.982986591787, "Lat": 32.678296328495101 }, "geometry": { "type": "Point", "coordinates": [ -116.982986591786997, 32.678296328495101 ] } },
{ "type": "Feature", "properties": { "X": -13039680.5241, "Y": 3866671.2311999998, "OBJECTID": 1427, "Owner": "SDG&E", "Path": null, "Source": "CEC", "Type": "SUBSTATION", "HIFLD_ID": 301309, "Name": "Mission", "Max_Voltage": 230, "ZIP_CODE": 92108, "STATE": "CA", "COUNTY": "San Diego County", "CITY": "San Diego", "Lon": -117.137443148655, "Lat": 32.784020274007297 }, "geometry": { "type": "Point", "coordinates": [ -117.137443148654995, 32.784020274007297 ] } },
{ "type": "Feature", "properties": { "X": -13045796.510299999, "Y": 3864295.3361999998, "OBJECTID": 1435, "Owner": "SDG&E", "Path": null, "Source": "CEC", "Type": "SUBSTATION", "HIFLD_ID": 303720, "Name": "Old Town", "Max_Voltage": 230, "ZIP_CODE": 92110, "STATE": "CA", "COUNTY": "San Diego County", "CITY": "San Diego", "Lon": -117.192383987418, "Lat": 32.766075003846602 }, "geometry": { "type": "Point", "coordinates": [ -117.192383987417998, 32.766075003846602 ] } },
{ "type": "Feature", "properties": { "X": -13048774.8224, "Y": 3884519.2859, "OBJECTID": 1441, "Owner": "SDG&E", "Path": null, "Source": "CEC", "Type": null, "HIFLD_ID": null, "Name": "Penasquitos", "Max_Voltage": 230, "ZIP_CODE": 92130, "STATE": "CA", "COUNTY": "San Diego County", "CITY": "San Diego", "Lon": -117.21913861984901, "Lat": 32.918711857407501 }, "geometry": { "type": "Point", "coordinates": [ -117.219138619849005, 32.918711857407501 ] } },
{ "type": "Feature", "properties": { "X": -13040231.0956, "Y": 3854809.6479000002, "OBJECTID": 1450, "Owner": "SDG&E", "Path": null, "Source": "CEC", "Type": "SUBSTATION", "HIFLD_ID": 304366, "Name": "Sampson", "Max_Voltage": 230, "ZIP_CODE": 92113, "STATE": "CA", "COUNTY": "San Diego County", "CITY": "San Diego", "Lon": -117.14238901596499, "Lat": 32.6943930129504 }, "geometry": { "type": "Point", "coordinates": [ -117.142389015964994, 32.6943930129504 ] } },
{ "type": "Feature", "properties": { "X": -13061622.258099999, "Y": 3923407.4523999998, "OBJECTID": 1451, "Owner": "SDG&E", "Path": "44", "Source": "CEC", "Type": "SUBSTATION", "HIFLD_ID": 304572, "Name": "San Luis Rey", "Max_Voltage": 230, "ZIP_CODE": 92054, "STATE": "CA", "COUNTY": "San Diego County", "CITY": "Oceanside", "Lon": -117.334549098772, "Lat": 33.2114747105351 }, "geometry": { "type": "Point", "coordinates": [ -117.334549098772001, 33.2114747105351 ] } },
{ "type": "Feature", "properties": { "X": -13027845.526000001, "Y": 3884345.1352, "OBJECTID": 1465, "Owner": "SDG&E", "Path": null, "Source": "CEC", "Type": "SUBSTATION", "HIFLD_ID": 305902, "Name": "Sycamore Canyon", "Max_Voltage": 230, "ZIP_CODE": 92071, "STATE": "CA", "COUNTY": "San Diego County", "CITY": "San Diego", "Lon": -117.03112755146201, "Lat": 32.917398605389401 }, "geometry": { "type": "Point", "coordinates": [ -117.031127551462006, 32.917398605389401 ] } },
{ "type": "Feature", "properties": { "X": -13087994.33, "Y": 3955602.6599, "OBJECTID": 1466, "Owner": "SDG&E", "Path": null, "Source": "CEC", "Type": "SUBSTATION", "HIFLD_ID": 300131, "Name": "Talega", "Max_Voltage": 230, "ZIP_CODE": 92672, "STATE": "CA", "COUNTY": "Orange County", "CITY": "Unincorporated", "Lon": -117.571453451374, "Lat": 33.453112424925102 }, "geometry": { "type": "Point", "coordinates": [ -117.571453451373998, 33.453112424925102 ] } },
{ "type": "Feature", "properties": { "X": -13624776.210100001, "Y": 4549454.9375, "OBJECTID": 1473, "Owner": "PG&E", "Path": null, "Source": "CEC", "Type": "SUBSTATION", "HIFLD_ID": 305027, "Name": "Embarcadero", "Max_Voltage": 230, "ZIP_CODE": 94105, "STATE": "CA", "COUNTY": "San Francisco County", "CITY": "San Francisco", "Lon": -122.393447122464, "Lat": 37.787534840785199 }, "geometry": { "type": "Point", "coordinates": [ -122.393447122463996, 37.787534840785199 ] } },
{ "type": "Feature", "properties": { "X": -13626567.364, "Y": 4537635.4217999997, "OBJECTID": 1475, "Owner": "PG&E", "Path": null, "Source": "CEC", "Type": "SUBSTATION", "HIFLD_ID": 301170, "Name": "Martin", "Max_Voltage": 230, "ZIP_CODE": 94014, "STATE": "CA", "COUNTY": "San Mateo County", "CITY": "Brisbane", "Lon": -122.409537331349, "Lat": 37.703577151326201 }, "geometry": { "type": "Point", "coordinates": [ -122.409537331349, 37.703577151326201 ] } },
{ "type": "Feature", "properties": { "X": -13471181.968599999, "Y": 4581617.4178999998, "OBJECTID": 1484, "Owner": "PG&E", "Path": "H3", "Source": "CEC", "Type": "SUBSTATION", "HIFLD_ID": 305708, "Name": "Bellota", "Max_Voltage": 230, "ZIP_CODE": 95236, "STATE": "CA", "COUNTY": "San Joaquin County", "CITY": "Unincorporated", "Lon": -121.013686575061, "Lat": 38.015512338982802 }, "geometry": { "type": "Point", "coordinates": [ -121.013686575061001, 38.015512338982802 ] } },
{ "type": "Feature", "properties": { "X": -13487531.8574, "Y": 4596073.0481000002, "OBJECTID": 1501, "Owner": "PG&E", "Path": null, "Source": "CEC", "Type": "SUBSTATION", "HIFLD_ID": 300823, "Name": "Lockeford", "Max_Voltage": 230, "ZIP_CODE": 95240, "STATE": "CA", "COUNTY": "San Joaquin County", "CITY": "Unincorporated", "Lon": -121.160560125709, "Lat": 38.117748085853499 }, "geometry": { "type": "Point", "coordinates": [ -121.160560125708997, 38.117748085853499 ] } },
{ "type": "Feature", "properties": { "X": -13508467.402899999, "Y": 4578337.9814, "OBJECTID": 1518, "Owner": "PG&E", "Path": null, "Source": "CEC", "Type": "SUBSTATION", "HIFLD_ID": 309735, "Name": "Stagg", "Max_Voltage": 230, "ZIP_CODE": 95219, "STATE": "CA", "COUNTY": "San Joaquin County", "CITY": "Stockton", "Lon": -121.34862733051, "Lat": 37.9922990315874 }, "geometry": { "type": "Point", "coordinates": [ -121.348627330509999, 37.9922990315874 ] } },
{ "type": "Feature", "properties": { "X": -13496405.564300001, "Y": 4568109.6267, "OBJECTID": 1526, "Owner": "PG&E", "Path": null, "Source": "CEC", "Type": "SUBSTATION", "HIFLD_ID": 303226, "Name": "Weber", "Max_Voltage": 230, "ZIP_CODE": 95205, "STATE": "CA", "COUNTY": "San Joaquin County", "CITY": "Unincorporated", "Lon": -121.24027399076699, "Lat": 37.919851003045999 }, "geometry": { "type": "Point", "coordinates": [ -121.240273990766994, 37.919851003045999 ] } },
{ "type": "Feature", "properties": { "X": -13408788.7641, "Y": 4165085.8672000002, "OBJECTID": 1537, "Owner": "PG&E", "Path": null, "Source": "CEC", "Type": "SUBSTATION", "HIFLD_ID": 303861, "Name": "Mesa", "Max_Voltage": 230, "ZIP_CODE": 93444, "STATE": "CA", "COUNTY": "San Luis Obispo County", "CITY": "Unincorporated", "Lon": -120.45319888309299, "Lat": 35.00886455677 }, "geometry": { "type": "Point", "coordinates": [ -120.453198883092995, 35.00886455677 ] } },
{ "type": "Feature", "properties": { "X": -13603871.3774, "Y": 4497209.8334, "OBJECTID": 1547, "Owner": "Other", "Path": null, "Source": "CEC", "Type": "SUBSTATION", "HIFLD_ID": 300995, "Name": "S.L.A.C", "Max_Voltage": 230, "ZIP_CODE": 94025, "STATE": "CA", "COUNTY": "San Mateo County", "CITY": "Unincorporated", "Lon": -122.20565581502601, "Lat": 37.415702421592002 }, "geometry": { "type": "Point", "coordinates": [ -122.205655815026006, 37.415702421592002 ] } },
{ "type": "Feature", "properties": { "X": -13612856.543299999, "Y": 4503086.0778000001, "OBJECTID": 1565, "Owner": "PG&E", "Path": null, "Source": "CEC", "Type": "SUBSTATION", "HIFLD_ID": 304264, "Name": "Jefferson", "Max_Voltage": 230, "ZIP_CODE": 94062, "STATE": "CA", "COUNTY": "San Mateo County", "CITY": "Unincorporated", "Lon": -122.286370933698, "Lat": 37.457616821620398 }, "geometry": { "type": "Point", "coordinates": [ -122.286370933697995, 37.457616821620398 ] } },
{ "type": "Feature", "properties": { "X": -13616451.382200001, "Y": 4520694.5124000004, "OBJECTID": 1575, "Owner": "PG&E", "Path": null, "Source": "CEC", "Type": "SUBSTATION", "HIFLD_ID": 300828, "Name": "San Mateo", "Max_Voltage": 230, "ZIP_CODE": 94401, "STATE": "CA", "COUNTY": "San Mateo County", "CITY": "San Mateo", "Lon": -122.318663921384, "Lat": 37.583074609252101 }, "geometry": { "type": "Point", "coordinates": [ -122.318663921384001, 37.583074609252101 ] } },
{ "type": "Feature", "properties": { "X": -13569964.851500001, "Y": 4471733.6891000001, "OBJECTID": 1627, "Owner": "PG&E", "Path": null, "Source": "CEC", "Type": "SUBSTATION", "HIFLD_ID": 304145, "Name": "Hicks", "Max_Voltage": 230, "ZIP_CODE": 95124, "STATE": "CA", "COUNTY": "Santa Clara County", "CITY": "San Jose", "Lon": -121.90106831081501, "Lat": 37.233713452707903 }, "geometry": { "type": "Point", "coordinates": [ -121.901068310815006, 37.233713452707903 ] } },
{ "type": "Feature", "properties": { "X": -13589374.271600001, "Y": 4484701.9914999995, "OBJECTID": 1638, "Owner": "PG&E", "Path": null, "Source": "CEC", "Type": "SUBSTATION", "HIFLD_ID": 305804, "Name": "Monta Vista (Upper)", "Max_Voltage": 230, "ZIP_CODE": 95014, "STATE": "CA", "COUNTY": "Santa Clara County", "CITY": "Cupertino", "Lon": -122.075426098272, "Lat": 37.326407664914903 }, "geometry": { "type": "Point", "coordinates": [ -122.075426098272004, 37.326407664914903 ] } },
{ "type": "Feature", "properties": { "X": -13582672.139, "Y": 4478352.4007000001, "OBJECTID": 1643, "Owner": "PG&E", "Path": null, "Source": "CEC", "Type": "SUBSTATION", "HIFLD_ID": 308864, "Name": "Saratoga", "Max_Voltage": 230, "ZIP_CODE": 95070, "STATE": "CA", "COUNTY": "Santa Clara County", "CITY": "Saratoga", "Lon": -122.015219816727, "Lat": 37.281036626777798 }, "geometry": { "type": "Point", "coordinates": [ -122.015219816726997, 37.281036626777798 ] } },
{ "type": "Feature", "properties": { "X": -13549263.4837, "Y": 4994357.9529, "OBJECTID": 1663, "Owner": "Other", "Path": "H12", "Source": "CEC", "Type": "SUBSTATION", "HIFLD_ID": 304233, "Name": "Burney Forest Power", "Max_Voltage": 230, "ZIP_CODE": 96013, "STATE": "CA", "COUNTY": "Shasta County", "CITY": "Unincorporated", "Lon": -121.715104759892, "Lat": 40.877963602045 }, "geometry": { "type": "Point", "coordinates": [ -121.715104759892, 40.877963602045 ] } },
{ "type": "Feature", "properties": { "X": -13610391.261299999, "Y": 4923930.6999000004, "OBJECTID": 1674, "Owner": "PG&E", "Path": "H12", "Source": "CEC", "Type": "SUBSTATION", "HIFLD_ID": 304370, "Name": "Cottonwood", "Max_Voltage": 230, "ZIP_CODE": 96022, "STATE": "CA", "COUNTY": "Shasta County", "CITY": "Unincorporated", "Lon": -122.26422492870699, "Lat": 40.397880022580303 }, "geometry": { "type": "Point", "coordinates": [ -122.264224928706994, 40.397880022580303 ] } },
{ "type": "Feature", "properties": { "X": -13573832.924900001, "Y": 4983986.1935000001, "OBJECTID": 1683, "Owner": "PG&E", "Path": "66", "Source": "CEC", "Type": "SUBSTATION", "HIFLD_ID": 303913, "Name": "Round Mt.", "Max_Voltage": 500, "ZIP_CODE": 96065, "STATE": "CA", "COUNTY": "Shasta County", "CITY": "Unincorporated", "Lon": -121.935815805413, "Lat": 40.807478964492098 }, "geometry": { "type": "Point", "coordinates": [ -121.935815805413, 40.807478964492098 ] } },
{ "type": "Feature", "properties": { "X": -13572365.687200001, "Y": 4636556.1924000001, "OBJECTID": 1729, "Owner": "PG&E", "Path": "15X", "Source": "CEC", "Type": "SUBSTATION", "HIFLD_ID": 309387, "Name": "Amerigas", "Max_Voltage": 230, "ZIP_CODE": 95688, "STATE": "CA", "COUNTY": "Solano County", "CITY": "Unincorporated", "Lon": -121.922635384356, "Lat": 38.403299345704603 }, "geometry": { "type": "Point", "coordinates": [ -121.922635384355999, 38.403299345704603 ] } },
{ "type": "Feature", "properties": { "X": -13596271.958900001, "Y": 4590856.447, "OBJECTID": 1737, "Owner": "PG&E", "Path": null, "Source": "CEC", "Type": "SUBSTATION", "HIFLD_ID": 308621, "Name": "Bahia", "Max_Voltage": 230, "ZIP_CODE": 94510, "STATE": "CA", "COUNTY": "Solano County", "CITY": "Benicia", "Lon": -122.137389077463, "Lat": 38.0808707637241 }, "geometry": { "type": "Point", "coordinates": [ -122.137389077462998, 38.0808707637241 ] } },
{ "type": "Feature", "properties": { "X": -13577716.8949, "Y": 4619831.1771, "OBJECTID": 1746, "Owner": "PG&E", "Path": null, "Source": "CEC", "Type": "SUBSTATION", "HIFLD_ID": 306191, "Name": "Peabody", "Max_Voltage": 230, "ZIP_CODE": 94533, "STATE": "CA", "COUNTY": "Solano County", "CITY": "Fairfield", "Lon": -121.97070610175901, "Lat": 38.285464111873303 }, "geometry": { "type": "Point", "coordinates": [ -121.970706101759006, 38.285464111873303 ] } },
{ "type": "Feature", "properties": { "X": -13665655.1566, "Y": 4649991.5303999996, "OBJECTID": 1758, "Owner": "PG&E", "Path": "North Bay", "Source": "CEC", "Type": "SUBSTATION", "HIFLD_ID": 310238, "Name": "Fulton", "Max_Voltage": 230, "ZIP_CODE": 95403, "STATE": "CA", "COUNTY": "Sonoma County", "CITY": "Unincorporated", "Lon": -122.76066894697099, "Lat": 38.497818423779599 }, "geometry": { "type": "Point", "coordinates": [ -122.760668946970995, 38.497818423779599 ] } },
{ "type": "Feature", "properties": { "X": -13645726.346799999, "Y": 4614938.3427999998, "OBJECTID": 1760, "Owner": "PG&E", "Path": "North Bay", "Source": "CEC", "Type": "SUBSTATION", "HIFLD_ID": 304694, "Name": "Lakeville", "Max_Voltage": 230, "ZIP_CODE": 94954, "STATE": "CA", "COUNTY": "Sonoma County", "CITY": "Unincorporated", "Lon": -122.581645402139, "Lat": 38.2509556670473 }, "geometry": { "type": "Point", "coordinates": [ -122.581645402139003, 38.2509556670473 ] } },
{ "type": "Feature", "properties": { "X": -13460427.410700001, "Y": 4532619.0713999998, "OBJECTID": 1787, "Owner": "Other", "Path": null, "Source": "CEC", "Type": "SUBSTATION", "HIFLD_ID": 304103, "Name": "Parker", "Max_Voltage": 230, "ZIP_CODE": 95355, "STATE": "CA", "COUNTY": "Stanislaus County", "CITY": "Modesto", "Lon": -120.917076738266, "Lat": 37.667915675056697 }, "geometry": { "type": "Point", "coordinates": [ -120.917076738266005, 37.667915675056697 ] } },
{ "type": "Feature", "properties": { "X": -13495388.3643, "Y": 4511409.0264, "OBJECTID": 1799, "Owner": "Other", "Path": null, "Source": "CEC", "Type": "SUBSTATION", "HIFLD_ID": 302934, "Name": "Westley", "Max_Voltage": 230, "ZIP_CODE": 95363, "STATE": "CA", "COUNTY": "Stanislaus County", "CITY": "Unincorporated", "Lon": -121.231136327939, "Lat": 37.516943028515499 }, "geometry": { "type": "Point", "coordinates": [ -121.231136327938998, 37.516943028515499 ] } },
{ "type": "Feature", "properties": { "X": -13447668.424000001, "Y": 4543040.0428, "OBJECTID": 1800, "Owner": "Other", "Path": "H1", "Source": "CEC", "Type": "SUBSTATION", "HIFLD_ID": 302801, "Name": "Warnerville", "Max_Voltage": 230, "ZIP_CODE": 95361, "STATE": "CA", "COUNTY": "Stanislaus County", "CITY": "Unincorporated", "Lon": -120.80246081086, "Lat": 37.741979670374697 }, "geometry": { "type": "Point", "coordinates": [ -120.802460810859998, 37.741979670374697 ] } },
{ "type": "Feature", "properties": { "X": -13450339.865499999, "Y": 4547359.4302000003, "OBJECTID": 1819, "Owner": "PG&E", "Path": null, "Source": "CEC", "Type": "SUBSTATION", "HIFLD_ID": 301897, "Name": "Cottle", "Max_Voltage": 230, "ZIP_CODE": 95361, "STATE": "CA", "COUNTY": "Stanislaus County", "CITY": "Oakdale", "Lon": -120.82645877775801, "Lat": 37.772656748479598 }, "geometry": { "type": "Point", "coordinates": [ -120.826458777758006, 37.772656748479598 ] } },
{ "type": "Feature", "properties": { "X": -13547164.1669, "Y": 4729094.3189000003, "OBJECTID": 1830, "Owner": "Other", "Path": null, "Source": "CEC", "Type": null, "HIFLD_ID": null, "Name": "Sutter", "Max_Voltage": 230, "ZIP_CODE": 95993, "STATE": "CA", "COUNTY": "Sutter County", "CITY": "Unincorporated", "Lon": -121.69624627560999, "Lat": 39.051800853282302 }, "geometry": { "type": "Point", "coordinates": [ -121.696246275609994, 39.051800853282302 ] } },
{ "type": "Feature", "properties": { "X": -13521627.105900001, "Y": 4712390.7625000002, "OBJECTID": 1836, "Owner": "PG&E", "Path": null, "Source": "CEC", "Type": "SUBSTATION", "HIFLD_ID": 304864, "Name": "Rio Oso", "Max_Voltage": 230, "ZIP_CODE": 95674, "STATE": "CA", "COUNTY": "Sutter County", "CITY": "Unincorporated", "Lon": -121.46684295367599, "Lat": 38.935178953624202 }, "geometry": { "type": "Point", "coordinates": [ -121.466842953675993, 38.935178953624202 ] } },
{ "type": "Feature", "properties": { "X": -13623526.2366, "Y": 4921676.7375999996, "OBJECTID": 1838, "Owner": "Other", "Path": "H13, 66X", "Source": "CEC", "Type": "SUBSTATION", "HIFLD_ID": 306950, "Name": "Olinda", "Max_Voltage": 500, "ZIP_CODE": 96022, "STATE": "CA", "COUNTY": "Shasta County", "CITY": "Unincorporated", "Lon": -122.382218419439, "Lat": 40.382458382009197 }, "geometry": { "type": "Point", "coordinates": [ -122.382218419438999, 40.382458382009197 ] } },
{ "type": "Feature", "properties": { "X": -13400802.2842, "Y": 4599867.4785000002, "OBJECTID": 1898, "Owner": "Other", "Path": "H3", "Source": "CEC", "Type": "SUBSTATION", "HIFLD_ID": 300469, "Name": "Sierra", "Max_Voltage": 230, "ZIP_CODE": 95247, "STATE": "CA", "COUNTY": "Calaveras County", "CITY": "Unincorporated", "Lon": -120.381455113919, "Lat": 38.144560071569799 }, "geometry": { "type": "Point", "coordinates": [ -120.381455113919003, 38.144560071569799 ] } },
{ "type": "Feature", "properties": { "X": -13490976.595799999, "Y": 4769191.3616000004, "OBJECTID": 1956, "Owner": "PG&E", "Path": null, "Source": "CEC", "Type": "SUBSTATION", "HIFLD_ID": 309538, "Name": "Colgate", "Max_Voltage": 230, "ZIP_CODE": 95935, "STATE": "CA", "COUNTY": "Yuba County", "CITY": "Unincorporated", "Lon": -121.191504737359, "Lat": 39.330967788984502 }, "geometry": { "type": "Point", "coordinates": [ -121.191504737358997, 39.330967788984502 ] } },
{ "type": "Feature", "properties": { "X": -13611757.986500001, "Y": 4755703.8828999996, "OBJECTID": 1968, "Owner": "WAPA", "Path": "66X", "Source": "CEC", "Type": "SUBSTATION", "HIFLD_ID": 302008, "Name": "Maxwell", "Max_Voltage": 500, "ZIP_CODE": 95979, "STATE": "CA", "COUNTY": "Colusa County", "CITY": "Unincorporated", "Lon": -122.27650243021399, "Lat": 39.237187947716102 }, "geometry": { "type": "Point", "coordinates": [ -122.276502430213995, 39.237187947716102 ] } },
{ "type": "Feature", "properties": { "X": -13630412.9345, "Y": 4955037.0514000002, "OBJECTID": 1969, "Owner": "WAPA", "Path": "H13", "Source": "CEC", "Type": "SUBSTATION", "HIFLD_ID": 308933, "Name": "Keswick", "Max_Voltage": 230, "ZIP_CODE": 96003, "STATE": "CA", "COUNTY": "Shasta County", "CITY": "Unincorporated", "Lon": -122.444082679094, "Lat": 40.610349293768401 }, "geometry": { "type": "Point", "coordinates": [ -122.444082679093995, 40.610349293768401 ] } },
{ "type": "Feature", "properties": { "X": -13627870.8182, "Y": 4970396.6114999996, "OBJECTID": 1970, "Owner": "WAPA", "Path": "H13", "Source": "CEC", "Type": "SUBSTATION", "HIFLD_ID": 310457, "Name": "Shasta", "Max_Voltage": 230, "ZIP_CODE": 96003, "STATE": "CA", "COUNTY": "Shasta County", "CITY": "Unincorporated", "Lon": -122.42124645968001, "Lat": 40.715013150256702 }, "geometry": { "type": "Point", "coordinates": [ -122.421246459680006, 40.715013150256702 ] } },
{ "type": "Feature", "properties": { "X": -13453629.974099999, "Y": 4214869.4842999997, "OBJECTID": 1978, "Owner": "PG&E", "Path": null, "Source": "CEC", "Type": "SUBSTATION", "HIFLD_ID": 307072, "Name": "Morro Bay", "Max_Voltage": 230, "ZIP_CODE": 93442, "STATE": "CA", "COUNTY": "San Luis Obispo County", "CITY": "Morro Bay", "Lon": -120.856014326184, "Lat": 35.374339610657998 }, "geometry": { "type": "Point", "coordinates": [ -120.856014326183995, 35.374339610657998 ] } },
{ "type": "Feature", "properties": { "X": -13073116.0461, "Y": 4103117.5102, "OBJECTID": 1981, "Owner": "LADWP", "Path": "27, LADWP-N, 46", "Source": "CEC", "Type": "SUBSTATION", "HIFLD_ID": 309154, "Name": "Adelanto", "Max_Voltage": 500, "ZIP_CODE": 92301, "STATE": "CA", "COUNTY": "San Bernardino County", "CITY": "Adelanto", "Lon": -117.43779955272301, "Lat": 34.551647354979302 }, "geometry": { "type": "Point", "coordinates": [ -117.437799552723007, 34.551647354979302 ] } },
{ "type": "Feature", "properties": { "X": -13056427.759, "Y": 3911625.6838000002, "OBJECTID": 1985, "Owner": "SDG&E", "Path": null, "Source": "CEC", "Type": "SUBSTATION", "HIFLD_ID": 303820, "Name": "Palomar Airport", "Max_Voltage": 230, "ZIP_CODE": 92008, "STATE": "CA", "COUNTY": "San Diego County", "CITY": "Carlsbad", "Lon": -117.28788611905701, "Lat": 33.122880559493296 }, "geometry": { "type": "Point", "coordinates": [ -117.287886119057006, 33.122880559493296 ] } },
{ "type": "Feature", "properties": { "X": -13628295.6041, "Y": 4965107.2494000001, "OBJECTID": 1987, "Owner": "Other", "Path": "H13", "Source": "CEC", "Type": "SUBSTATION", "HIFLD_ID": 302257, "Name": "Flannigan", "Max_Voltage": 230, "ZIP_CODE": 96003, "STATE": "CA", "COUNTY": "Shasta County", "CITY": "Unincorporated", "Lon": -122.425062376863, "Lat": 40.678988664238403 }, "geometry": { "type": "Point", "coordinates": [ -122.425062376862996, 40.678988664238403 ] } },
{ "type": "Feature", "properties": { "X": -13050960.115900001, "Y": 3914098.9717000001, "OBJECTID": 1997, "Owner": "SDG&E", "Path": null, "Source": "CEC", "Type": "SUBSTATION", "HIFLD_ID": 307342, "Name": "Shadowridge", "Max_Voltage": 230, "ZIP_CODE": 92081, "STATE": "CA", "COUNTY": "San Diego County", "CITY": "Vista", "Lon": -117.238769445459, "Lat": 33.141486111700303 }, "geometry": { "type": "Point", "coordinates": [ -117.238769445458999, 33.141486111700303 ] } },
{ "type": "Feature", "properties": { "X": -13547973.0206, "Y": 4995094.2282999996, "OBJECTID": 2003, "Owner": "Other", "Path": "H12", "Source": "CEC", "Type": "SUBSTATION", "HIFLD_ID": 304725, "Name": "Sierra Pacific Industries Bfp", "Max_Voltage": 230, "ZIP_CODE": 96013, "STATE": "CA", "COUNTY": "Shasta County", "CITY": "Unincorporated", "Lon": -121.70351233286, "Lat": 40.882964349514999 }, "geometry": { "type": "Point", "coordinates": [ -121.703512332860001, 40.882964349514999 ] } },
{ "type": "Feature", "properties": { "X": -12769967.243000001, "Y": 3860398.6838000002, "OBJECTID": 2009, "Owner": "IID", "Path": null, "Source": "CEC", "Type": "SUBSTATION", "HIFLD_ID": 308982, "Name": "Pilot Knob", "Max_Voltage": 161, "ZIP_CODE": 92283, "STATE": "CA", "COUNTY": "Imperial County", "CITY": "Unincorporated", "Lon": -114.714567521307, "Lat": 32.736635534477202 }, "geometry": { "type": "Point", "coordinates": [ -114.714567521307004, 32.736635534477202 ] } },
{ "type": "Feature", "properties": { "X": -13509424.398499999, "Y": 4687782.7977, "OBJECTID": 2014, "Owner": "Other", "Path": null, "Source": "CEC", "Type": "SUBSTATION", "HIFLD_ID": 303553, "Name": "Fiddyment Receiving", "Max_Voltage": 230, "ZIP_CODE": 95747, "STATE": "CA", "COUNTY": "Placer County", "CITY": "Roseville", "Lon": -121.357224168695, "Lat": 38.763019668270502 }, "geometry": { "type": "Point", "coordinates": [ -121.357224168694998, 38.763019668270502 ] } },
{ "type": "Feature", "properties": { "X": -13550184.972100001, "Y": 4725109.0574000003, "OBJECTID": 2015, "Owner": "WAPA", "Path": null, "Source": "CEC", "Type": "SUBSTATION", "HIFLD_ID": 309745, "Name": "O'Banion", "Max_Voltage": 230, "ZIP_CODE": 95993, "STATE": "CA", "COUNTY": "Sutter County", "CITY": "Unincorporated", "Lon": -121.72338263095, "Lat": 39.023993771442001 }, "geometry": { "type": "Point", "coordinates": [ -121.723382630949999, 39.023993771442001 ] } },
{ "type": "Feature", "properties": { "X": -13573511.7775, "Y": 4498859.3022999996, "OBJECTID": 2018, "Owner": "PG&E", "Path": null, "Source": "CEC", "Type": "SUBSTATION", "HIFLD_ID": 310258, "Name": "Los Esteros", "Max_Voltage": 230, "ZIP_CODE": 95134, "STATE": "CA", "COUNTY": "Santa Clara County", "CITY": "San Jose", "Lon": -121.932930888619, "Lat": 37.427470214256402 }, "geometry": { "type": "Point", "coordinates": [ -121.932930888618998, 37.427470214256402 ] } },
{ "type": "Feature", "properties": { "X": -13562070.0197, "Y": 4597049.9462000001, "OBJECTID": 2029, "Owner": "Other", "Path": "15X", "Source": "CEC", "Type": "SUBSTATION", "HIFLD_ID": 309954, "Name": "Birds Landing", "Max_Voltage": 230, "ZIP_CODE": 94571, "STATE": "CA", "COUNTY": "Solano County", "CITY": "Unincorporated", "Lon": -121.83014782951101, "Lat": 38.124651928026402 }, "geometry": { "type": "Point", "coordinates": [ -121.830147829511006, 38.124651928026402 ] } },
{ "type": "Feature", "properties": { "X": -13040328.967, "Y": 3854874.3876, "OBJECTID": 2045, "Owner": "SDG&E", "Path": null, "Source": "CEC", "Type": "SUBSTATION", "HIFLD_ID": 303846, "Name": "Silvergate", "Max_Voltage": 230, "ZIP_CODE": 92113, "STATE": "CA", "COUNTY": "San Diego County", "CITY": "San Diego", "Lon": -117.143268210236, "Lat": 32.694882436740798 }, "geometry": { "type": "Point", "coordinates": [ -117.143268210236002, 32.694882436740798 ] } },
{ "type": "Feature", "properties": { "X": -13083884.316199999, "Y": 4040691.6658000001, "OBJECTID": 2058, "Owner": "SCE", "Path": null, "Source": "CEC", "Type": "SUBSTATION", "HIFLD_ID": 309096, "Name": "Rancho Vista", "Max_Voltage": 500, "ZIP_CODE": 91730, "STATE": "CA", "COUNTY": "San Bernardino County", "CITY": "Rancho Cucamonga", "Lon": -117.534532569322, "Lat": 34.0885003904082 }, "geometry": { "type": "Point", "coordinates": [ -117.534532569321996, 34.0885003904082 ] } },
{ "type": "Feature", "properties": { "X": -13429005.775800001, "Y": 5088324.3926999997, "OBJECTID": 2061, "Owner": "Other", "Path": null, "Source": "CEC", "Type": "SUBSTATION", "HIFLD_ID": 308347, "Name": "Hilltop", "Max_Voltage": 345, "ZIP_CODE": 96101, "STATE": "CA", "COUNTY": "Modoc County", "CITY": "Unincorporated", "Lon": -120.634811389269, "Lat": 41.513123240054 }, "geometry": { "type": "Point", "coordinates": [ -120.634811389269004, 41.513123240054 ] } },
{ "type": "Feature", "properties": { "X": -13515242.346799999, "Y": 4840752.1265000002, "OBJECTID": 2074, "Owner": "PG&E", "Path": "H10", "Source": "CEC", "Type": "SUBSTATION", "HIFLD_ID": 301366, "Name": "Cresta", "Max_Voltage": 230, "ZIP_CODE": 95965, "STATE": "CA", "COUNTY": "Butte County", "CITY": "Unincorporated", "Lon": -121.409487687072, "Lat": 39.826434151429297 }, "geometry": { "type": "Point", "coordinates": [ -121.409487687072001, 39.826434151429297 ] } },
{ "type": "Feature", "properties": { "X": -13521975.328400001, "Y": 4825848.3479000004, "OBJECTID": 2075, "Owner": "PG&E", "Path": "H10", "Source": "CEC", "Type": "SUBSTATION", "HIFLD_ID": 304253, "Name": "Poe", "Max_Voltage": 230, "ZIP_CODE": 95965, "STATE": "CA", "COUNTY": "Butte County", "CITY": "Unincorporated", "Lon": -121.469971089666, "Lat": 39.723536736556603 }, "geometry": { "type": "Point", "coordinates": [ -121.469971089666004, 39.723536736556603 ] } },
{ "type": "Feature", "properties": { "X": -13523785.195900001, "Y": 4798262.6029000003, "OBJECTID": 2084, "Owner": "PG&E", "Path": null, "Source": "CEC", "Type": "SUBSTATION", "HIFLD_ID": 304479, "Name": "Edward C Hyatt", "Max_Voltage": 230, "ZIP_CODE": 95966, "STATE": "CA", "COUNTY": "Butte County", "CITY": "Unincorporated", "Lon": -121.486229406636, "Lat": 39.532675907701098 }, "geometry": { "type": "Point", "coordinates": [ -121.486229406635999, 39.532675907701098 ] } },
{ "type": "Feature", "properties": { "X": -13394782.270500001, "Y": 4719434.4347000001, "OBJECTID": 2087, "Owner": "SMUD", "Path": "SMUD", "Source": "CEC", "Type": "SUBSTATION", "HIFLD_ID": 303999, "Name": "Loon Lake", "Max_Voltage": 230, "ZIP_CODE": 51, "STATE": "CA", "COUNTY": "El Dorado County", "CITY": "Unincorporated", "Lon": -120.327376410309, "Lat": 38.984380322477598 }, "geometry": { "type": "Point", "coordinates": [ -120.327376410309, 38.984380322477598 ] } },
{ "type": "Feature", "properties": { "X": -13400461.859300001, "Y": 4706931.6939000003, "OBJECTID": 2088, "Owner": "SMUD", "Path": null, "Source": "CEC", "Type": "SUBSTATION", "HIFLD_ID": 303060, "Name": "Robbs Peak", "Max_Voltage": 230, "ZIP_CODE": 51, "STATE": "CA", "COUNTY": "El Dorado County", "CITY": "Unincorporated", "Lon": -120.378397024818, "Lat": 38.897022840900803 }, "geometry": { "type": "Point", "coordinates": [ -120.378397024818, 38.897022840900803 ] } },
{ "type": "Feature", "properties": { "X": -13662164.345699999, "Y": 4689245.5738000004, "OBJECTID": 2089, "Owner": "PG&E", "Path": null, "Source": "CEC", "Type": "SUBSTATION", "HIFLD_ID": 301072, "Name": "Big Geysers", "Max_Voltage": 230, "ZIP_CODE": 95461, "STATE": "CA", "COUNTY": "Lake County", "CITY": "Unincorporated", "Lon": -122.729310459369, "Lat": 38.773265011366902 }, "geometry": { "type": "Point", "coordinates": [ -122.729310459369003, 38.773265011366902 ] } },
{ "type": "Feature", "properties": { "X": -13658059.5789, "Y": 4687724.9118, "OBJECTID": 2090, "Owner": "PG&E", "Path": null, "Source": "CEC", "Type": "SUBSTATION", "HIFLD_ID": 306974, "Name": "Bear Canyon", "Max_Voltage": 230, "ZIP_CODE": 95461, "STATE": "CA", "COUNTY": "Lake County", "CITY": "Unincorporated", "Lon": -122.69243671178, "Lat": 38.762614202684901 }, "geometry": { "type": "Point", "coordinates": [ -122.692436711780005, 38.762614202684901 ] } },
{ "type": "Feature", "properties": { "X": -13661395.9641, "Y": 4691322.8685, "OBJECTID": 2092, "Owner": "PG&E", "Path": null, "Source": "CEC", "Type": "SUBSTATION", "HIFLD_ID": 301699, "Name": "West Ford Flat", "Max_Voltage": 230, "ZIP_CODE": 95461, "STATE": "CA", "COUNTY": "Lake County", "CITY": "Unincorporated", "Lon": -122.722407969581, "Lat": 38.787811939799496 }, "geometry": { "type": "Point", "coordinates": [ -122.722407969580999, 38.787811939799496 ] } },
{ "type": "Feature", "properties": { "X": -13417547.4706, "Y": 4697927.1760999998, "OBJECTID": 2093, "Owner": "SMUD", "Path": "SMUD", "Source": "CEC", "Type": "SUBSTATION", "HIFLD_ID": 306484, "Name": "Jaybird", "Max_Voltage": 230, "ZIP_CODE": 95726, "STATE": "CA", "COUNTY": "El Dorado County", "CITY": "Unincorporated", "Lon": -120.531879682728, "Lat": 38.834041023304799 }, "geometry": { "type": "Point", "coordinates": [ -120.531879682728004, 38.834041023304799 ] } },
{ "type": "Feature", "properties": { "X": -13445958.2969, "Y": 4688091.3815000001, "OBJECTID": 2094, "Owner": "SMUD", "Path": "SMUD", "Source": "CEC", "Type": "SUBSTATION", "HIFLD_ID": 309850, "Name": "White Rock", "Max_Voltage": 230, "ZIP_CODE": 95667, "STATE": "CA", "COUNTY": "El Dorado County", "CITY": "Unincorporated", "Lon": -120.78709847747901, "Lat": 38.765181124299801 }, "geometry": { "type": "Point", "coordinates": [ -120.787098477479006, 38.765181124299801 ] } },
{ "type": "Feature", "properties": { "X": -13413138.9099, "Y": 4643074.987, "OBJECTID": 2096, "Owner": "PG&E", "Path": "H11", "Source": "CEC", "Type": "SUBSTATION", "HIFLD_ID": 306652, "Name": "Tiger Creek", "Max_Voltage": 230, "ZIP_CODE": 95666, "STATE": "CA", "COUNTY": "Amador County", "CITY": "Unincorporated", "Lon": -120.492276907738, "Lat": 38.449175243866101 }, "geometry": { "type": "Point", "coordinates": [ -120.492276907738002, 38.449175243866101 ] } },
{ "type": "Feature", "properties": { "X": -13432900.6077, "Y": 4626368.4836999997, "OBJECTID": 2097, "Owner": "PG&E", "Path": "H11", "Source": "CEC", "Type": "SUBSTATION", "HIFLD_ID": 308321, "Name": "Electra 1", "Max_Voltage": 230, "ZIP_CODE": 95642, "STATE": "CA", "COUNTY": "Amador County", "CITY": "Unincorporated", "Lon": -120.669799259706, "Lat": 38.331545188417003 }, "geometry": { "type": "Point", "coordinates": [ -120.669799259705997, 38.331545188417003 ] } },
{ "type": "Feature", "properties": { "X": -13400649.897, "Y": 4599938.0255000005, "OBJECTID": 2100, "Owner": "Other", "Path": "H3", "Source": "CEC", "Type": null, "HIFLD_ID": null, "Name": "Collierville", "Max_Voltage": 230, "ZIP_CODE": 95247, "STATE": "CA", "COUNTY": "Calaveras County", "CITY": "Unincorporated", "Lon": -120.38008619572599, "Lat": 38.145058473253002 }, "geometry": { "type": "Point", "coordinates": [ -120.380086195725994, 38.145058473253002 ] } },
{ "type": "Feature", "properties": { "X": -13587803.528000001, "Y": 4582028.9829000002, "OBJECTID": 2106, "Owner": "Other", "Path": null, "Source": "CEC", "Type": "SUBSTATION", "HIFLD_ID": 301575, "Name": "Tesoro", "Max_Voltage": 230, "ZIP_CODE": 94553, "STATE": "CA", "COUNTY": "Contra Costa County", "CITY": "Unincorporated", "Lon": -122.061315868501, "Lat": 38.018425059815897 }, "geometry": { "type": "Point", "coordinates": [ -122.061315868500998, 38.018425059815897 ] } },
{ "type": "Feature", "properties": { "X": -13554517.541200001, "Y": 4581585.9641000004, "OBJECTID": 2111, "Owner": "PG&E", "Path": null, "Source": "CEC", "Type": "SUBSTATION", "HIFLD_ID": 305718, "Name": "Contra Costa Power", "Max_Voltage": 230, "ZIP_CODE": 94509, "STATE": "CA", "COUNTY": "Contra Costa County", "CITY": "Antioch", "Lon": -121.762302761165, "Lat": 38.015289729803598 }, "geometry": { "type": "Point", "coordinates": [ -121.762302761165003, 38.015289729803598 ] } },
{ "type": "Feature", "properties": { "X": -13554238.6642, "Y": 4571833.5267000003, "OBJECTID": 2120, "Owner": "PG&E", "Path": null, "Source": "CEC", "Type": "SUBSTATION", "HIFLD_ID": 301935, "Name": "Lone Tree", "Max_Voltage": 230, "ZIP_CODE": 94531, "STATE": "CA", "COUNTY": "Contra Costa County", "CITY": "Antioch", "Lon": -121.759797566478, "Lat": 37.946235874611403 }, "geometry": { "type": "Point", "coordinates": [ -121.759797566477999, 37.946235874611403 ] } },
{ "type": "Feature", "properties": { "X": -13201374.5689, "Y": 4515469.3861999996, "OBJECTID": 2124, "Owner": "LADWP", "Path": null, "Source": "CEC", "Type": "SUBSTATION", "HIFLD_ID": 300226, "Name": "Upper Gorge", "Max_Voltage": 230, "ZIP_CODE": 93514, "STATE": "CA", "COUNTY": "Mono County", "CITY": "Unincorporated", "Lon": -118.589965466698, "Lat": 37.545868282892897 }, "geometry": { "type": "Point", "coordinates": [ -118.589965466698004, 37.545868282892897 ] } },
{ "type": "Feature", "properties": { "X": -13543233.5452, "Y": 4554203.9184999997, "OBJECTID": 2125, "Owner": "PG&E", "Path": null, "Source": "CEC", "Type": "SUBSTATION", "HIFLD_ID": 301013, "Name": "Wind Driven", "Max_Voltage": 230, "ZIP_CODE": 94514, "STATE": "CA", "COUNTY": "Contra Costa County", "CITY": "Unincorporated", "Lon": -121.660936900851, "Lat": 37.821241499724103 }, "geometry": { "type": "Point", "coordinates": [ -121.660936900850999, 37.821241499724103 ] } },
{ "type": "Feature", "properties": { "X": -13550673.808900001, "Y": 4550003.1019000001, "OBJECTID": 2126, "Owner": "PG&E", "Path": null, "Source": "CEC", "Type": "SUBSTATION", "HIFLD_ID": 304473, "Name": "US Wind Power", "Max_Voltage": 230, "ZIP_CODE": 94514, "STATE": "CA", "COUNTY": "Contra Costa County", "CITY": "Unincorporated", "Lon": -121.72777392662501, "Lat": 37.791426311160102 }, "geometry": { "type": "Point", "coordinates": [ -121.727773926625005, 37.791426311160102 ] } },
{ "type": "Feature", "properties": { "X": -13534268.8181, "Y": 4550934.4911000002, "OBJECTID": 2132, "Owner": "WAPA", "Path": "66X", "Source": "CEC", "Type": "SUBSTATION", "HIFLD_ID": 307230, "Name": "Tracy", "Max_Voltage": 500, "ZIP_CODE": 94514, "STATE": "CA", "COUNTY": "Alameda County", "CITY": "Unincorporated", "Lon": -121.58040538664299, "Lat": 37.798037860446499 }, "geometry": { "type": "Point", "coordinates": [ -121.580405386642994, 37.798037860446499 ] } },
{ "type": "Feature", "properties": { "X": -13536265.7348, "Y": 4543801.1352000004, "OBJECTID": 2136, "Owner": "Other", "Path": null, "Source": "CEC", "Type": "SUBSTATION", "HIFLD_ID": 302399, "Name": "Fayette Energy Corp.", "Max_Voltage": 230, "ZIP_CODE": 95391, "STATE": "CA", "COUNTY": "Alameda County", "CITY": "Unincorporated", "Lon": -121.598343995059, "Lat": 37.747386010737301 }, "geometry": { "type": "Point", "coordinates": [ -121.598343995058997, 37.747386010737301 ] } },
{ "type": "Feature", "properties": { "X": -13547035.14, "Y": 4536193.1097, "OBJECTID": 2143, "Owner": "WAPA", "Path": null, "Source": "CEC", "Type": "SUBSTATION", "HIFLD_ID": 302235, "Name": "Lawrence Livermore", "Max_Voltage": 230, "ZIP_CODE": 94550, "STATE": "CA", "COUNTY": "Alameda County", "CITY": "Unincorporated", "Lon": -121.695087207475, "Lat": 37.6933254419652 }, "geometry": { "type": "Point", "coordinates": [ -121.695087207474998, 37.6933254419652 ] } },
{ "type": "Feature", "properties": { "X": -13197795.702199999, "Y": 4500302.5576, "OBJECTID": 2158, "Owner": "LADWP", "Path": "L1", "Source": "CEC", "Type": "SUBSTATION", "HIFLD_ID": 302170, "Name": "Control Gorge", "Max_Voltage": 230, "ZIP_CODE": 93514, "STATE": "CA", "COUNTY": "Inyo County", "CITY": "Unincorporated", "Lon": -118.55781596017, "Lat": 37.437765301700999 }, "geometry": { "type": "Point", "coordinates": [ -118.557815960170004, 37.437765301700999 ] } },
{ "type": "Feature", "properties": { "X": -13275585.841, "Y": 4459756.2051999997, "OBJECTID": 2166, "Owner": "SCE", "Path": null, "Source": "CEC", "Type": "SUBSTATION", "HIFLD_ID": 301470, "Name": "Eastwood", "Max_Voltage": 230, "ZIP_CODE": 93664, "STATE": "CA", "COUNTY": "Fresno County", "CITY": "Unincorporated", "Lon": -119.256616665783, "Lat": 37.148000000580197 }, "geometry": { "type": "Point", "coordinates": [ -119.256616665783, 37.148000000580197 ] } },
{ "type": "Feature", "properties": { "X": -13256770.262599999, "Y": 4426428.688, "OBJECTID": 2167, "Owner": "PG&E", "Path": "H5", "Source": "CEC", "Type": "SUBSTATION", "HIFLD_ID": 300954, "Name": "Balch 2", "Max_Voltage": 230, "ZIP_CODE": 93664, "STATE": "CA", "COUNTY": "Fresno County", "CITY": "Unincorporated", "Lon": -119.087593449869, "Lat": 36.908989571817301 }, "geometry": { "type": "Point", "coordinates": [ -119.087593449869004, 36.908989571817301 ] } },
{ "type": "Feature", "properties": { "X": -13249335.833799999, "Y": 4428991.4844000004, "OBJECTID": 2168, "Owner": "PG&E", "Path": "H5", "Source": "CEC", "Type": "SUBSTATION", "HIFLD_ID": 307319, "Name": "Haas", "Max_Voltage": 230, "ZIP_CODE": 93664, "STATE": "CA", "COUNTY": "Fresno County", "CITY": "Unincorporated", "Lon": -119.020808839559, "Lat": 36.927395514934702 }, "geometry": { "type": "Point", "coordinates": [ -119.020808839558995, 36.927395514934702 ] } },
{ "type": "Feature", "properties": { "X": -13242977.9482, "Y": 4444560.7342999997, "OBJECTID": 2169, "Owner": "PG&E", "Path": "H4", "Source": "CEC", "Type": "SUBSTATION", "HIFLD_ID": 307044, "Name": "Helm's Pumped Storage", "Max_Voltage": 230, "ZIP_CODE": 93664, "STATE": "CA", "COUNTY": "Fresno County", "CITY": "Unincorporated", "Lon": -118.963694981548, "Lat": 37.039117991540998 }, "geometry": { "type": "Point", "coordinates": [ -118.963694981548002, 37.039117991540998 ] } },
{ "type": "Feature", "properties": { "X": -13463561.7881, "Y": 4440976.2883000001, "OBJECTID": 2180, "Owner": "PG&E", "Path": null, "Source": "CEC", "Type": "SUBSTATION", "HIFLD_ID": 300785, "Name": "Wright", "Max_Voltage": 230, "ZIP_CODE": 93635, "STATE": "CA", "COUNTY": "Merced County", "CITY": "Unincorporated", "Lon": -120.945233329749, "Lat": 37.013411112949299 }, "geometry": { "type": "Point", "coordinates": [ -120.945233329749001, 37.013411112949299 ] } },
{ "type": "Feature", "properties": { "X": -13478057.750399999, "Y": 4448403.3421, "OBJECTID": 2182, "Owner": "PG&E", "Path": null, "Source": "CEC", "Type": "SUBSTATION", "HIFLD_ID": 305921, "Name": "San Luis", "Max_Voltage": 230, "ZIP_CODE": 93635, "STATE": "CA", "COUNTY": "Merced County", "CITY": "Unincorporated", "Lon": -121.0754527741, "Lat": 37.066666688166599 }, "geometry": { "type": "Point", "coordinates": [ -121.0754527741, 37.066666688166599 ] } },
{ "type": "Feature", "properties": { "X": -13283398.7119, "Y": 4415819.4835000001, "OBJECTID": 2187, "Owner": "PG&E", "Path": null, "Source": "CEC", "Type": "SUBSTATION", "HIFLD_ID": 300052, "Name": "Pine Flat", "Max_Voltage": 230, "ZIP_CODE": 93657, "STATE": "CA", "COUNTY": "Fresno County", "CITY": "Unincorporated", "Lon": -119.326800879858, "Lat": 36.832747268099197 }, "geometry": { "type": "Point", "coordinates": [ -119.326800879857998, 36.832747268099197 ] } },
{ "type": "Feature", "properties": { "X": -13444866.039799999, "Y": 4419899.0018999996, "OBJECTID": 2188, "Owner": "PG&E", "Path": null, "Source": "CEC", "Type": "SUBSTATION", "HIFLD_ID": 307723, "Name": "San Luis 3", "Max_Voltage": 230, "ZIP_CODE": 93622, "STATE": "CA", "COUNTY": "Merced County", "CITY": "Unincorporated", "Lon": -120.77728656533699, "Lat": 36.862073444276902 }, "geometry": { "type": "Point", "coordinates": [ -120.777286565336993, 36.862073444276902 ] } },
{ "type": "Feature", "properties": { "X": -13556011.961200001, "Y": 4412118.1272999998, "OBJECTID": 2191, "Owner": "PG&E", "Path": null, "Source": "CEC", "Type": "SUBSTATION", "HIFLD_ID": 301760, "Name": "Moss Landing", "Max_Voltage": 500, "ZIP_CODE": 95039, "STATE": "CA", "COUNTY": "Monterey County", "CITY": "Unincorporated", "Lon": -121.775727364815, "Lat": 36.806129830393999 }, "geometry": { "type": "Point", "coordinates": [ -121.775727364814998, 36.806129830393999 ] } },
{ "type": "Feature", "properties": { "X": -13247518.0305, "Y": 4167901.5485, "OBJECTID": 2230, "Owner": "Other", "Path": null, "Source": "CEC", "Type": "SUBSTATION", "HIFLD_ID": 305949, "Name": "Wheeler", "Max_Voltage": 230, "ZIP_CODE": 93313, "STATE": "CA", "COUNTY": "Kern County", "CITY": "Unincorporated", "Lon": -119.004479234248, "Lat": 35.0295790704129 }, "geometry": { "type": "Point", "coordinates": [ -119.004479234247995, 35.0295790704129 ] } },
{ "type": "Feature", "properties": { "X": -13166458.835100001, "Y": 4169954.0786000001, "OBJECTID": 2232, "Owner": "SCE", "Path": null, "Source": "CEC", "Type": "SUBSTATION", "HIFLD_ID": 306892, "Name": "Eastwind", "Max_Voltage": 220, "ZIP_CODE": 93501, "STATE": "CA", "COUNTY": "Kern County", "CITY": "Unincorporated", "Lon": -118.27631209278201, "Lat": 35.044675896496898 }, "geometry": { "type": "Point", "coordinates": [ -118.276312092782007, 35.044675896496898 ] } },
{ "type": "Feature", "properties": { "X": -13166467.591600001, "Y": 4169834.9353, "OBJECTID": 2233, "Owner": "SCE", "Path": null, "Source": "CEC", "Type": "SUBSTATION", "HIFLD_ID": 309466, "Name": "Westwind", "Max_Voltage": 220, "ZIP_CODE": 93501, "STATE": "CA", "COUNTY": "Kern County", "CITY": "Unincorporated", "Lon": -118.276390753738, "Lat": 35.043799646924697 }, "geometry": { "type": "Point", "coordinates": [ -118.276390753737999, 35.043799646924697 ] } },
{ "type": "Feature", "properties": { "X": -13168305.2754, "Y": 4169128.8402999998, "OBJECTID": 2235, "Owner": "SCE", "Path": null, "Source": "CEC", "Type": "SUBSTATION", "HIFLD_ID": 304383, "Name": "Winderness", "Max_Voltage": 220, "ZIP_CODE": 93501, "STATE": "CA", "COUNTY": "Kern County", "CITY": "Unincorporated", "Lon": -118.292898948718, "Lat": 35.038606416345601 }, "geometry": { "type": "Point", "coordinates": [ -118.292898948718005, 35.038606416345601 ] } },
{ "type": "Feature", "properties": { "X": -13621206.5659, "Y": 5157525.4420999996, "OBJECTID": 2285, "Owner": "PCORP", "Path": "25", "Source": "CEC", "Type": "SUBSTATION", "HIFLD_ID": 201857, "Name": "Copco 2 A", "Max_Voltage": 230, "ZIP_CODE": 96044, "STATE": "CA", "COUNTY": "Siskiyou County", "CITY": "Unincorporated", "Lon": -122.361380463196, "Lat": 41.9769376532455 }, "geometry": { "type": "Point", "coordinates": [ -122.361380463195999, 41.9769376532455 ] } },
{ "type": "Feature", "properties": { "X": -13525072.295700001, "Y": 5011019.4129, "OBJECTID": 2287, "Owner": "PG&E", "Path": "H12", "Source": "CEC", "Type": "SUBSTATION", "HIFLD_ID": 306653, "Name": "Pit 1", "Max_Voltage": 230, "ZIP_CODE": 96028, "STATE": "CA", "COUNTY": "Shasta County", "CITY": "Unincorporated", "Lon": -121.497791620168, "Lat": 40.991034963548898 }, "geometry": { "type": "Point", "coordinates": [ -121.497791620168002, 40.991034963548898 ] } },
{ "type": "Feature", "properties": { "X": -13552885.6953, "Y": 5012001.936, "OBJECTID": 2290, "Owner": "PG&E", "Path": "H12", "Source": "CEC", "Type": "SUBSTATION", "HIFLD_ID": 300313, "Name": "Pit 3", "Max_Voltage": 230, "ZIP_CODE": 96065, "STATE": "CA", "COUNTY": "Shasta County", "CITY": "Unincorporated", "Lon": -121.747643640295, "Lat": 40.997696716469697 }, "geometry": { "type": "Point", "coordinates": [ -121.747643640294996, 40.997696716469697 ] } },
{ "type": "Feature", "properties": { "X": -13564202.395500001, "Y": 5010438.2121000001, "OBJECTID": 2291, "Owner": "PG&E", "Path": null, "Source": "CEC", "Type": "SUBSTATION", "HIFLD_ID": 304331, "Name": "Pit 4", "Max_Voltage": 230, "ZIP_CODE": 96065, "STATE": "CA", "COUNTY": "Shasta County", "CITY": "Unincorporated", "Lon": -121.849303287881, "Lat": 40.987093958942602 }, "geometry": { "type": "Point", "coordinates": [ -121.849303287881, 40.987093958942602 ] } },
{ "type": "Feature", "properties": { "X": -13573040.7675, "Y": 4994314.6868000003, "OBJECTID": 2292, "Owner": "PG&E", "Path": null, "Source": "CEC", "Type": "SUBSTATION", "HIFLD_ID": 309215, "Name": "Cove Road", "Max_Voltage": 230, "ZIP_CODE": 96065, "STATE": "CA", "COUNTY": "Shasta County", "CITY": "Unincorporated", "Lon": -121.928699734248, "Lat": 40.877669728579299 }, "geometry": { "type": "Point", "coordinates": [ -121.928699734247999, 40.877669728579299 ] } },
{ "type": "Feature", "properties": { "X": -13578150.5317, "Y": 5011240.3536, "OBJECTID": 2293, "Owner": "PG&E", "Path": null, "Source": "CEC", "Type": "SUBSTATION", "HIFLD_ID": 303958, "Name": "James B. Black", "Max_Voltage": 230, "ZIP_CODE": 96065, "STATE": "CA", "COUNTY": "Shasta County", "CITY": "Unincorporated", "Lon": -121.974601527364, "Lat": 40.9925330553002 }, "geometry": { "type": "Point", "coordinates": [ -121.974601527364001, 40.9925330553002 ] } },
{ "type": "Feature", "properties": { "X": -13580125.769200001, "Y": 5000883.3398000002, "OBJECTID": 2294, "Owner": "PG&E", "Path": null, "Source": "CEC", "Type": "SUBSTATION", "HIFLD_ID": 308747, "Name": "Pit 6", "Max_Voltage": 230, "ZIP_CODE": 96065, "STATE": "CA", "COUNTY": "Shasta County", "CITY": "Unincorporated", "Lon": -121.992345387074, "Lat": 40.922270553642299 }, "geometry": { "type": "Point", "coordinates": [ -121.992345387073996, 40.922270553642299 ] } },
{ "type": "Feature", "properties": { "X": -13579984.064200001, "Y": 4989743.8532999996, "OBJECTID": 2295, "Owner": "PG&E", "Path": null, "Source": "CEC", "Type": "SUBSTATION", "HIFLD_ID": 300142, "Name": "Pit 7", "Max_Voltage": 230, "ZIP_CODE": 96065, "STATE": "CA", "COUNTY": "Shasta County", "CITY": "Unincorporated", "Lon": -121.991072429318, "Lat": 40.846616255176798 }, "geometry": { "type": "Point", "coordinates": [ -121.991072429317995, 40.846616255176798 ] } },
{ "type": "Feature", "properties": { "X": -13578371.321, "Y": 5010384.4336000001, "OBJECTID": 2296, "Owner": "PG&E", "Path": null, "Source": "CEC", "Type": "SUBSTATION", "HIFLD_ID": 307776, "Name": "Pit 5", "Max_Voltage": 230, "ZIP_CODE": 96065, "STATE": "CA", "COUNTY": "Shasta County", "CITY": "Unincorporated", "Lon": -121.97658491117301, "Lat": 40.986729286327098 }, "geometry": { "type": "Point", "coordinates": [ -121.976584911173006, 40.986729286327098 ] } },
{ "type": "Feature", "properties": { "X": -13665740.029899999, "Y": 4982440.4211, "OBJECTID": 2297, "Owner": "Other", "Path": "H14", "Source": "CEC", "Type": "SUBSTATION", "HIFLD_ID": 304703, "Name": "Trinity Hydro", "Max_Voltage": 230, "ZIP_CODE": 96052, "STATE": "CA", "COUNTY": "Trinity County", "CITY": "Unincorporated", "Lon": -122.761431376871, "Lat": 40.796967751567401 }, "geometry": { "type": "Point", "coordinates": [ -122.761431376871002, 40.796967751567401 ] } },
{ "type": "Feature", "properties": { "X": -13640769.646199999, "Y": 4953261.0256000003, "OBJECTID": 2298, "Owner": "WAPA", "Path": "H14", "Source": "CEC", "Type": "SUBSTATION", "HIFLD_ID": 303262, "Name": "Whiskeytown", "Max_Voltage": 230, "ZIP_CODE": 96033, "STATE": "CA", "COUNTY": "Shasta County", "CITY": "Unincorporated", "Lon": -122.537118603737, "Lat": 40.5982364212799 }, "geometry": { "type": "Point", "coordinates": [ -122.537118603736999, 40.5982364212799 ] } },
{ "type": "Feature", "properties": { "X": -13650634.9142, "Y": 4960251.9639, "OBJECTID": 2299, "Owner": "WAPA", "Path": "H14", "Source": "CEC", "Type": "SUBSTATION", "HIFLD_ID": 309013, "Name": "Carr", "Max_Voltage": 230, "ZIP_CODE": 96033, "STATE": "CA", "COUNTY": "Shasta County", "CITY": "Unincorporated", "Lon": -122.625739813677, "Lat": 40.645903416950702 }, "geometry": { "type": "Point", "coordinates": [ -122.625739813677001, 40.645903416950702 ] } },
{ "type": "Feature", "properties": { "X": -13633045.2459, "Y": 4957627.5774999997, "OBJECTID": 2309, "Owner": "WAPA", "Path": null, "Source": "CEC", "Type": "SUBSTATION", "HIFLD_ID": 300114, "Name": "Spring Creek", "Max_Voltage": 230, "ZIP_CODE": 96001, "STATE": "CA", "COUNTY": "Shasta County", "CITY": "Unincorporated", "Lon": -122.467729134677, "Lat": 40.628013295474702 }, "geometry": { "type": "Point", "coordinates": [ -122.467729134677001, 40.628013295474702 ] } },
{ "type": "Feature", "properties": { "X": -13616104.6767, "Y": 4941710.3557000002, "OBJECTID": 2313, "Owner": "WAPA", "Path": null, "Source": "CEC", "Type": "SUBSTATION", "HIFLD_ID": 307570, "Name": "Airport", "Max_Voltage": 230, "ZIP_CODE": 96002, "STATE": "CA", "COUNTY": "Shasta County", "CITY": "Redding", "Lon": -122.315549412363, "Lat": 40.519404846380397 }, "geometry": { "type": "Point", "coordinates": [ -122.315549412362998, 40.519404846380397 ] } },
{ "type": "Feature", "properties": { "X": -13486210.818299999, "Y": 4878466.0077, "OBJECTID": 2319, "Owner": "PG&E", "Path": "H10", "Source": "CEC", "Type": "SUBSTATION", "HIFLD_ID": 309781, "Name": "Caribou 2", "Max_Voltage": 230, "ZIP_CODE": 95984, "STATE": "CA", "COUNTY": "Plumas County", "CITY": "Unincorporated", "Lon": -121.148693029146, "Lat": 40.086127567909003 }, "geometry": { "type": "Point", "coordinates": [ -121.148693029146003, 40.086127567909003 ] } },
{ "type": "Feature", "properties": { "X": -13497423.921499999, "Y": 4867018.5111999996, "OBJECTID": 2320, "Owner": "PG&E", "Path": "H10", "Source": "CEC", "Type": "SUBSTATION", "HIFLD_ID": 303336, "Name": "Belden", "Max_Voltage": 230, "ZIP_CODE": 95984, "STATE": "CA", "COUNTY": "Plumas County", "CITY": "Unincorporated", "Lon": -121.249422049438, "Lat": 40.007405680784601 }, "geometry": { "type": "Point", "coordinates": [ -121.249422049437996, 40.007405680784601 ] } },
{ "type": "Feature", "properties": { "X": -13424730.9717, "Y": 4725145.404, "OBJECTID": 2332, "Owner": "PG&E", "Path": "PCWA", "Source": "CEC", "Type": "SUBSTATION", "HIFLD_ID": 309436, "Name": "Middle Fork", "Max_Voltage": 230, "ZIP_CODE": 95631, "STATE": "CA", "COUNTY": "Placer County", "CITY": "Unincorporated", "Lon": -120.596410171108, "Lat": 39.0242474280289 }, "geometry": { "type": "Point", "coordinates": [ -120.596410171108005, 39.0242474280289 ] } },
{ "type": "Feature", "properties": { "X": -13660190.196, "Y": 4685747.6672, "OBJECTID": 2339, "Owner": "PG&E", "Path": null, "Source": "CEC", "Type": "SUBSTATION", "HIFLD_ID": 300833, "Name": "NCPA 3&4", "Max_Voltage": 230, "ZIP_CODE": 95448, "STATE": "CA", "COUNTY": "Sonoma County", "CITY": "Unincorporated", "Lon": -122.71157637006201, "Lat": 38.748763083935799 }, "geometry": { "type": "Point", "coordinates": [ -122.711576370062005, 38.748763083935799 ] } },
{ "type": "Feature", "properties": { "X": -13668236.7926, "Y": 4693822.1601, "OBJECTID": 2343, "Owner": "PG&E", "Path": "North Bay", "Source": "CEC", "Type": "SUBSTATION", "HIFLD_ID": 304629, "Name": "Cobb Creek", "Max_Voltage": 230, "ZIP_CODE": 95441, "STATE": "CA", "COUNTY": "Sonoma County", "CITY": "Unincorporated", "Lon": -122.783860177682, "Lat": 38.805310104709797 }, "geometry": { "type": "Point", "coordinates": [ -122.783860177682001, 38.805310104709797 ] } },
{ "type": "Feature", "properties": { "X": -13664277.2708, "Y": 4688578.201, "OBJECTID": 2344, "Owner": "PG&E", "Path": null, "Source": "CEC", "Type": "SUBSTATION", "HIFLD_ID": 308455, "Name": "Socrates 18", "Max_Voltage": 230, "ZIP_CODE": 95441, "STATE": "CA", "COUNTY": "Sonoma County", "CITY": "Unincorporated", "Lon": -122.748291187635, "Lat": 38.768590887588701 }, "geometry": { "type": "Point", "coordinates": [ -122.748291187635004, 38.768590887588701 ] } },
{ "type": "Feature", "properties": { "X": -13668033.3024, "Y": 4691165.739, "OBJECTID": 2346, "Owner": "PG&E", "Path": null, "Source": "CEC", "Type": "SUBSTATION", "HIFLD_ID": 300152, "Name": "Sulphur Springs", "Max_Voltage": 230, "ZIP_CODE": 95441, "STATE": "CA", "COUNTY": "Sonoma County", "CITY": "Unincorporated", "Lon": -122.782032194217, "Lat": 38.786711693385399 }, "geometry": { "type": "Point", "coordinates": [ -122.782032194216995, 38.786711693385399 ] } },
{ "type": "Feature", "properties": { "X": -13670948.7531, "Y": 4693866.429, "OBJECTID": 2347, "Owner": "PG&E", "Path": null, "Source": "CEC", "Type": "SUBSTATION", "HIFLD_ID": 305906, "Name": "Mccabe", "Max_Voltage": 230, "ZIP_CODE": 95441, "STATE": "CA", "COUNTY": "Sonoma County", "CITY": "Unincorporated", "Lon": -122.80822213335701, "Lat": 38.805620003154999 }, "geometry": { "type": "Point", "coordinates": [ -122.808222133357006, 38.805620003154999 ] } },
{ "type": "Feature", "properties": { "X": -13666360.6701, "Y": 4692489.3066999996, "OBJECTID": 2348, "Owner": "PG&E", "Path": "North Bay", "Source": "CEC", "Type": "SUBSTATION", "HIFLD_ID": 304020, "Name": "Fumarole", "Max_Voltage": 230, "ZIP_CODE": 95441, "STATE": "CA", "COUNTY": "Sonoma County", "CITY": "Unincorporated", "Lon": -122.767006682318, "Lat": 38.795978999550002 }, "geometry": { "type": "Point", "coordinates": [ -122.767006682317998, 38.795978999550002 ] } },
{ "type": "Feature", "properties": { "X": -13499063.609200001, "Y": 4687599.8232000005, "OBJECTID": 2352, "Owner": "Other", "Path": null, "Source": "CEC", "Type": "SUBSTATION", "HIFLD_ID": 308767, "Name": "Berry", "Max_Voltage": 230, "ZIP_CODE": 95678, "STATE": "CA", "COUNTY": "Placer County", "CITY": "Roseville", "Lon": -121.26415161431601, "Lat": 38.761738003672598 }, "geometry": { "type": "Point", "coordinates": [ -121.264151614316006, 38.761738003672598 ] } },
{ "type": "Feature", "properties": { "X": -13661077.738700001, "Y": 4686249.3343000002, "OBJECTID": 2354, "Owner": "PG&E", "Path": null, "Source": "CEC", "Type": "SUBSTATION", "HIFLD_ID": 304033, "Name": "NCPA 1&2", "Max_Voltage": 230, "ZIP_CODE": 95461, "STATE": "CA", "COUNTY": "Sonoma County", "CITY": "Unincorporated", "Lon": -122.719549302484, "Lat": 38.752277648346698 }, "geometry": { "type": "Point", "coordinates": [ -122.719549302483998, 38.752277648346698 ] } },
{ "type": "Feature", "properties": { "X": -13487596.8709, "Y": 4679855.423, "OBJECTID": 2357, "Owner": "WAPA", "Path": null, "Source": "CEC", "Type": "SUBSTATION", "HIFLD_ID": 302308, "Name": "Folsom", "Max_Voltage": 230, "ZIP_CODE": 95630, "STATE": "CA", "COUNTY": "Sacramento County", "CITY": "Folsom", "Lon": -121.161144151305, "Lat": 38.7074704242264 }, "geometry": { "type": "Point", "coordinates": [ -121.161144151304995, 38.7074704242264 ] } },
{ "type": "Feature", "properties": { "X": -13571862.0766, "Y": 4636824.5416000001, "OBJECTID": 2375, "Owner": "PG&E", "Path": "15X", "Source": "CEC", "Type": "SUBSTATION", "HIFLD_ID": 305757, "Name": "Calpeak Power Vaca Dixon 1", "Max_Voltage": 500, "ZIP_CODE": 95688, "STATE": "CA", "COUNTY": "Solano County", "CITY": "Unincorporated", "Lon": -121.918111373811, "Lat": 38.405188424012003 }, "geometry": { "type": "Point", "coordinates": [ -121.918111373811001, 38.405188424012003 ] } },
{ "type": "Feature", "properties": { "X": -13483414.070599999, "Y": 4628189.0427000001, "OBJECTID": 2378, "Owner": "SMUD", "Path": null, "Source": "CEC", "Type": "SUBSTATION", "HIFLD_ID": 307444, "Name": "Rancho Seco", "Max_Voltage": 230, "ZIP_CODE": 95638, "STATE": "CA", "COUNTY": "Sacramento County", "CITY": "Unincorporated", "Lon": -121.123569417295, "Lat": 38.344372985299799 }, "geometry": { "type": "Point", "coordinates": [ -121.123569417295002, 38.344372985299799 ] } },
{ "type": "Feature", "properties": { "X": -13483554.0496, "Y": 4627445.7971000001, "OBJECTID": 2379, "Owner": "SMUD", "Path": null, "Source": "CEC", "Type": "SUBSTATION", "HIFLD_ID": 301399, "Name": "Cosumnes", "Max_Voltage": 230, "ZIP_CODE": 95638, "STATE": "CA", "COUNTY": "Sacramento County", "CITY": "Unincorporated", "Lon": -121.124826869633, "Lat": 38.339136295091997 }, "geometry": { "type": "Point", "coordinates": [ -121.124826869632997, 38.339136295091997 ] } },
{ "type": "Feature", "properties": { "X": -13561967.9573, "Y": 4596906.4696000004, "OBJECTID": 2385, "Owner": "Other", "Path": "15X", "Source": "CEC", "Type": "SUBSTATION", "HIFLD_ID": 307023, "Name": "US Windpower", "Max_Voltage": 230, "ZIP_CODE": 94571, "STATE": "CA", "COUNTY": "Solano County", "CITY": "Unincorporated", "Lon": -121.82923098748201, "Lat": 38.123638004948603 }, "geometry": { "type": "Point", "coordinates": [ -121.829230987482006, 38.123638004948603 ] } },
{ "type": "Feature", "properties": { "X": -13566164.0208, "Y": 4610757.7613000004, "OBJECTID": 2388, "Owner": "PG&E", "Path": "15X", "Source": "CEC", "Type": "SUBSTATION", "HIFLD_ID": 308802, "Name": "Lambie Energy", "Max_Voltage": 230, "ZIP_CODE": 94585, "STATE": "CA", "COUNTY": "Solano County", "CITY": "Unincorporated", "Lon": -121.866924867661, "Lat": 38.221457648647402 }, "geometry": { "type": "Point", "coordinates": [ -121.866924867660998, 38.221457648647402 ] } },
{ "type": "Feature", "properties": { "X": -13512873.2633, "Y": 4591855.9941999996, "OBJECTID": 2391, "Owner": "Other", "Path": null, "Source": "CEC", "Type": "SUBSTATION", "HIFLD_ID": 304595, "Name": "Lodi Stig", "Max_Voltage": 230, "ZIP_CODE": 95242, "STATE": "CA", "COUNTY": "San Joaquin County", "CITY": "Lodi", "Lon": -121.388205848029, "Lat": 38.087938227653098 }, "geometry": { "type": "Point", "coordinates": [ -121.388205848029003, 38.087938227653098 ] } },
{ "type": "Feature", "properties": { "X": -13459203.545499999, "Y": 4507621.6973000001, "OBJECTID": 2412, "Owner": "Other", "Path": null, "Source": "CEC", "Type": "SUBSTATION", "HIFLD_ID": 307216, "Name": "Walnut", "Max_Voltage": 230, "ZIP_CODE": 95380, "STATE": "CA", "COUNTY": "Stanislaus County", "CITY": "Unincorporated", "Lon": -120.906082569682, "Lat": 37.489952684040802 }, "geometry": { "type": "Point", "coordinates": [ -120.906082569681999, 37.489952684040802 ] } },
{ "type": "Feature", "properties": { "X": -13552769.409499999, "Y": 4470014.1489000004, "OBJECTID": 2428, "Owner": "PG&E", "Path": null, "Source": "CEC", "Type": "SUBSTATION", "HIFLD_ID": 309434, "Name": "Metcalf Energy Center", "Max_Voltage": 230, "ZIP_CODE": 95013, "STATE": "CA", "COUNTY": "Santa Clara County", "CITY": "San Jose", "Lon": -121.74659902695601, "Lat": 37.221414035254597 }, "geometry": { "type": "Point", "coordinates": [ -121.746599026956005, 37.221414035254597 ] } },
{ "type": "Feature", "properties": { "X": -13452669.693499999, "Y": 4193313.3473, "OBJECTID": 2440, "Owner": "PG&E", "Path": null, "Source": "CEC", "Type": "SUBSTATION", "HIFLD_ID": 307300, "Name": "Diablo Canyon", "Max_Voltage": 500, "ZIP_CODE": 93424, "STATE": "CA", "COUNTY": "San Luis Obispo County", "CITY": "Unincorporated", "Lon": -120.847387979071, "Lat": 35.216291987728802 }, "geometry": { "type": "Point", "coordinates": [ -120.847387979071001, 35.216291987728802 ] } },
{ "type": "Feature", "properties": { "X": -13063143.426000001, "Y": 4167503.3672000002, "OBJECTID": 2441, "Owner": "SCE", "Path": null, "Source": "CEC", "Type": "SUBSTATION", "HIFLD_ID": 300365, "Name": "Harper Lake", "Max_Voltage": 220, "ZIP_CODE": 92347, "STATE": "CA", "COUNTY": "San Bernardino County", "CITY": "Unincorporated", "Lon": -117.348213982508, "Lat": 35.026650033559498 }, "geometry": { "type": "Point", "coordinates": [ -117.348213982508, 35.026650033559498 ] } },
{ "type": "Feature", "properties": { "X": -12815316.5789, "Y": 4048805.0315, "OBJECTID": 2442, "Owner": "SCE", "Path": null, "Source": "CEC", "Type": "SUBSTATION", "HIFLD_ID": 307637, "Name": "Iron Mt.", "Max_Voltage": 230, "ZIP_CODE": 92332, "STATE": "CA", "COUNTY": "San Bernardino County", "CITY": "Unincorporated", "Lon": -115.12194753694099, "Lat": 34.148839089191199 }, "geometry": { "type": "Point", "coordinates": [ -115.121947536940993, 34.148839089191199 ] } },
{ "type": "Feature", "properties": { "X": -12706258.386299999, "Y": 4068252.2481, "OBJECTID": 2455, "Owner": "WAPA", "Path": null, "Source": "CEC", "Type": null, "HIFLD_ID": null, "Name": "Parker", "Max_Voltage": 230, "ZIP_CODE": 92267, "STATE": "CA", "COUNTY": "San Bernardino County", "CITY": "Unincorporated", "Lon": -114.142261124285, "Lat": 34.293291662428601 }, "geometry": { "type": "Point", "coordinates": [ -114.142261124285, 34.293291662428601 ] } },
{ "type": "Feature", "properties": { "X": -12706165.309699999, "Y": 4067947.9597, "OBJECTID": 2456, "Owner": "WAPA", "Path": null, "Source": "CEC", "Type": "SUBSTATION", "HIFLD_ID": 307545, "Name": "Parker 2", "Max_Voltage": 230, "ZIP_CODE": 92267, "STATE": "CA", "COUNTY": "San Bernardino County", "CITY": "Unincorporated", "Lon": -114.14142500212201, "Lat": 34.291033337293698 }, "geometry": { "type": "Point", "coordinates": [ -114.141425002122006, 34.291033337293698 ] } },
{ "type": "Feature", "properties": { "X": -12852242.2765, "Y": 4003429.4131, "OBJECTID": 2483, "Owner": "SCE", "Path": null, "Source": "CEC", "Type": "SUBSTATION", "HIFLD_ID": 306150, "Name": "Eagle Mt.", "Max_Voltage": 230, "ZIP_CODE": 92239, "STATE": "CA", "COUNTY": "Riverside County", "CITY": "Unincorporated", "Lon": -115.453656721822, "Lat": 33.810830749025897 }, "geometry": { "type": "Point", "coordinates": [ -115.453656721822, 33.810830749025897 ] } },
{ "type": "Feature", "properties": { "X": -12863967.0813, "Y": 3984739.3135000002, "OBJECTID": 2484, "Owner": "SCE", "Path": "46, 42", "Source": "CEC", "Type": "SUBSTATION", "HIFLD_ID": 303223, "Name": "Capacitor", "Max_Voltage": 500, "ZIP_CODE": 92239, "STATE": "CA", "COUNTY": "Riverside County", "CITY": "Unincorporated", "Lon": -115.55898243532199, "Lat": 33.6712157621049 }, "geometry": { "type": "Point", "coordinates": [ -115.558982435321994, 33.6712157621049 ] } },
{ "type": "Feature", "properties": { "X": -12939694.2786, "Y": 3979279.4268, "OBJECTID": 2499, "Owner": "IID", "Path": null, "Source": "CEC", "Type": "SUBSTATION", "HIFLD_ID": 300979, "Name": "Avenue 58", "Max_Voltage": 161, "ZIP_CODE": 92253, "STATE": "CA", "COUNTY": "Riverside County", "CITY": "La Quinta", "Lon": -116.239251423437, "Lat": 33.630387560583102 }, "geometry": { "type": "Point", "coordinates": [ -116.239251423436997, 33.630387560583102 ] } },
{ "type": "Feature", "properties": { "X": -13086077.9301, "Y": 3944477.0014999998, "OBJECTID": 2503, "Owner": "SCE", "Path": "44", "Source": "CEC", "Type": "SUBSTATION", "HIFLD_ID": 308846, "Name": "San Onofre", "Max_Voltage": 230, "ZIP_CODE": 92672, "STATE": "CA", "COUNTY": "San Diego County", "CITY": "Unincorporated", "Lon": -117.554238138301, "Lat": 33.369685777020798 }, "geometry": { "type": "Point", "coordinates": [ -117.554238138301002, 33.369685777020798 ] } },
{ "type": "Feature", "properties": { "X": -13037434.797700001, "Y": 3911367.9715, "OBJECTID": 2505, "Owner": "SDG&E", "Path": null, "Source": "CEC", "Type": "SUBSTATION", "HIFLD_ID": 308981, "Name": "Calpeak Power Enterprise 7", "Max_Voltage": 230, "ZIP_CODE": 92029, "STATE": "CA", "COUNTY": "San Diego County", "CITY": "Escondido", "Lon": -117.11726944463, "Lat": 33.120941666788397 }, "geometry": { "type": "Point", "coordinates": [ -117.117269444629997, 33.120941666788397 ] } },
{ "type": "Feature", "properties": { "X": -13040352.4308, "Y": 3855087.9594000001, "OBJECTID": 2508, "Owner": "SDG&E", "Path": null, "Source": "CEC", "Type": null, "HIFLD_ID": null, "Name": "Main Street", "Max_Voltage": 230, "ZIP_CODE": 92113, "STATE": "CA", "COUNTY": "San Diego County", "CITY": "San Diego", "Lon": -117.14347898871399, "Lat": 32.696496993369202 }, "geometry": { "type": "Point", "coordinates": [ -117.143478988713994, 32.696496993369202 ] } },
{ "type": "Feature", "properties": { "X": -12745008.2446, "Y": 3861704.6127999998, "OBJECTID": 2529, "Owner": "Other", "Path": "46", "Source": "CEC", "Type": null, "HIFLD_ID": null, "Name": "North Gila", "Max_Voltage": 500, "ZIP_CODE": 85365, "STATE": "AZ", "COUNTY": null, "CITY": null, "Lon": -114.490357023103, "Lat": 32.746502999638899 }, "geometry": { "type": "Point", "coordinates": [ -114.490357023103002, 32.746502999638899 ] } },
{ "type": "Feature", "properties": { "X": -12742694.1457, "Y": 3853476.7065, "OBJECTID": 2530, "Owner": "WAPA", "Path": null, "Source": "CEC", "Type": null, "HIFLD_ID": null, "Name": "Gila", "Max_Voltage": 161, "ZIP_CODE": 85365, "STATE": "AZ", "COUNTY": null, "CITY": null, "Lon": -114.46956911932099, "Lat": 32.684315546970097 }, "geometry": { "type": "Point", "coordinates": [ -114.469569119320994, 32.684315546970097 ] } },
{ "type": "Feature", "properties": { "X": -13504902.083799999, "Y": 5161969.9862000002, "OBJECTID": 2531, "Owner": "PG&E", "Path": "66", "Source": "CEC", "Type": null, "HIFLD_ID": null, "Name": "Malin", "Max_Voltage": 500, "ZIP_CODE": 97623, "STATE": "OR", "COUNTY": null, "CITY": null, "Lon": -121.31659952434499, "Lat": 42.006612301214098 }, "geometry": { "type": "Point", "coordinates": [ -121.316599524344994, 42.006612301214098 ] } },
{ "type": "Feature", "properties": { "X": -13513091.051000001, "Y": 5172950.2033000002, "OBJECTID": 2532, "Owner": "Other", "Path": "66", "Source": "CEC", "Type": null, "HIFLD_ID": null, "Name": "Captain Jack", "Max_Voltage": 500, "ZIP_CODE": 97623, "STATE": "OR", "COUNTY": null, "CITY": null, "Lon": -121.390162268311, "Lat": 42.079864012574603 }, "geometry": { "type": "Point", "coordinates": [ -121.390162268311002, 42.079864012574603 ] } },
{ "type": "Feature", "properties": { "X": -13511614.9343, "Y": 4587744.9562, "OBJECTID": 2542, "Owner": "PG&E", "Path": null, "Source": "CEC", "Type": "SUBSTATION", "HIFLD_ID": 308241, "Name": "Eight Mile", "Max_Voltage": 230, "ZIP_CODE": 95209, "STATE": "CA", "COUNTY": "San Joaquin County", "CITY": "Unincorporated", "Lon": -121.376902086478, "Lat": 38.058866077851299 }, "geometry": { "type": "Point", "coordinates": [ -121.376902086477997, 38.058866077851299 ] } },
{ "type": "Feature", "properties": { "X": -13577223.8759, "Y": 4474537.3447000002, "OBJECTID": 2546, "Owner": "PG&E", "Path": null, "Source": "CEC", "Type": "SUBSTATION", "HIFLD_ID": 303819, "Name": "Vasona", "Max_Voltage": 230, "ZIP_CODE": 95032, "STATE": "CA", "COUNTY": "Santa Clara County", "CITY": "Los Gatos", "Lon": -121.966277236059, "Lat": 37.253762959617703 }, "geometry": { "type": "Point", "coordinates": [ -121.966277236059, 37.253762959617703 ] } },
{ "type": "Feature", "properties": { "X": -13474440.117699999, "Y": 4529051.7238999996, "OBJECTID": 2549, "Owner": "Other", "Path": null, "Source": "CEC", "Type": "SUBSTATION", "HIFLD_ID": 302361, "Name": "Rosemore B", "Max_Voltage": 230, "ZIP_CODE": 95358, "STATE": "CA", "COUNTY": "Stanislaus County", "CITY": "Unincorporated", "Lon": -121.04295502714599, "Lat": 37.6425447990989 }, "geometry": { "type": "Point", "coordinates": [ -121.042955027145993, 37.6425447990989 ] } },
{ "type": "Feature", "properties": { "X": -13660373.693499999, "Y": 4688238.4176000003, "OBJECTID": 2552, "Owner": "Other", "Path": null, "Source": "CEC", "Type": "SUBSTATION", "HIFLD_ID": 306482, "Name": "Santa Rosa Geothermal", "Max_Voltage": 230, "ZIP_CODE": 95461, "STATE": "CA", "COUNTY": "Lake County", "CITY": "Unincorporated", "Lon": -122.713224756142, "Lat": 38.766211006195697 }, "geometry": { "type": "Point", "coordinates": [ -122.713224756141997, 38.766211006195697 ] } },
{ "type": "Feature", "properties": { "X": -13660229.297, "Y": 4688189.2465000004, "OBJECTID": 2553, "Owner": "PG&E", "Path": null, "Source": "CEC", "Type": null, "HIFLD_ID": null, "Name": "Unknown", "Max_Voltage": 230, "ZIP_CODE": 95461, "STATE": "CA", "COUNTY": "Lake County", "CITY": "Unincorporated", "Lon": -122.711927620872, "Lat": 38.765866599852899 }, "geometry": { "type": "Point", "coordinates": [ -122.711927620872004, 38.765866599852899 ] } },
{ "type": "Feature", "properties": { "X": -13538288.546399999, "Y": 4546594.0093, "OBJECTID": 2557, "Owner": "Other", "Path": null, "Source": "CEC", "Type": "SUBSTATION", "HIFLD_ID": 310206, "Name": "Unknown", "Max_Voltage": 230, "ZIP_CODE": 94514, "STATE": "CA", "COUNTY": "Alameda County", "CITY": "Unincorporated", "Lon": -121.616515220143, "Lat": 37.767221516493898 }, "geometry": { "type": "Point", "coordinates": [ -121.616515220143, 37.767221516493898 ] } },
{ "type": "Feature", "properties": { "X": -13538058.546800001, "Y": 4546187.7958000004, "OBJECTID": 2558, "Owner": "Other", "Path": null, "Source": "CEC", "Type": "SUBSTATION", "HIFLD_ID": 300960, "Name": "Flowind Corp", "Max_Voltage": 230, "ZIP_CODE": 94514, "STATE": "CA", "COUNTY": "Alameda County", "CITY": "Unincorporated", "Lon": -121.61444909893901, "Lat": 37.764336844089001 }, "geometry": { "type": "Point", "coordinates": [ -121.614449098939005, 37.764336844089001 ] } },
{ "type": "Feature", "properties": { "X": -13257858.187100001, "Y": 4215642.4471000005, "OBJECTID": 2565, "Owner": "PG&E", "Path": null, "Source": "CEC", "Type": "SUBSTATION", "HIFLD_ID": 306334, "Name": "Kern Power", "Max_Voltage": 230, "ZIP_CODE": 93312, "STATE": "CA", "COUNTY": "Kern County", "CITY": "Bakersfield", "Lon": -119.097366441931, "Lat": 35.3800011687363 }, "geometry": { "type": "Point", "coordinates": [ -119.097366441931001, 35.3800011687363 ] } },
{ "type": "Feature", "properties": { "X": -13141843.6491, "Y": 4196117.5965, "OBJECTID": 2568, "Owner": "LADWP", "Path": "65", "Source": "CEC", "Type": "SUBSTATION", "HIFLD_ID": 304172, "Name": "Barren Ridge", "Max_Voltage": 230, "ZIP_CODE": 93519, "STATE": "CA", "COUNTY": "Kern County", "CITY": "Unincorporated", "Lon": -118.055190115358, "Lat": 35.236869945265802 }, "geometry": { "type": "Point", "coordinates": [ -118.055190115358002, 35.236869945265802 ] } },
{ "type": "Feature", "properties": { "X": -13265286.3221, "Y": 4216696.2894000001, "OBJECTID": 2569, "Owner": "PG&E", "Path": null, "Source": "CEC", "Type": "SUBSTATION", "HIFLD_ID": 304036, "Name": "Renfro", "Max_Voltage": 230, "ZIP_CODE": 93314, "STATE": "CA", "COUNTY": "Kern County", "CITY": "Unincorporated", "Lon": -119.164094513546, "Lat": 35.387719387123603 }, "geometry": { "type": "Point", "coordinates": [ -119.164094513546004, 35.387719387123603 ] } },
{ "type": "Feature", "properties": { "X": -13170637.5529, "Y": 4178585.135, "OBJECTID": 2571, "Owner": "SCE", "Path": null, "Source": "CEC", "Type": "SUBSTATION", "HIFLD_ID": 301467, "Name": "Arbwind", "Max_Voltage": 230, "ZIP_CODE": 93561, "STATE": "CA", "COUNTY": "Kern County", "CITY": "Unincorporated", "Lon": -118.313850153245, "Lat": 35.108128747640002 }, "geometry": { "type": "Point", "coordinates": [ -118.313850153244999, 35.108128747640002 ] } },
{ "type": "Feature", "properties": { "X": -13177792.454500001, "Y": 4177404.9331, "OBJECTID": 2572, "Owner": "SCE", "Path": null, "Source": "CEC", "Type": "SUBSTATION", "HIFLD_ID": 308246, "Name": "Highwind", "Max_Voltage": 220, "ZIP_CODE": 93561, "STATE": "CA", "COUNTY": "Kern County", "CITY": "Unincorporated", "Lon": -118.378123728021, "Lat": 35.099455181709402 }, "geometry": { "type": "Point", "coordinates": [ -118.378123728020995, 35.099455181709402 ] } },
{ "type": "Feature", "properties": { "X": -13172941.5065, "Y": 4177354.7645, "OBJECTID": 2575, "Owner": "SCE", "Path": null, "Source": "CEC", "Type": "SUBSTATION", "HIFLD_ID": 304730, "Name": "Unknown", "Max_Voltage": 230, "ZIP_CODE": 93501, "STATE": "CA", "COUNTY": "Kern County", "CITY": "Unincorporated", "Lon": -118.334546920774, "Lat": 35.099086460807897 }, "geometry": { "type": "Point", "coordinates": [ -118.334546920774002, 35.099086460807897 ] } },
{ "type": "Feature", "properties": { "X": -13562140.0655, "Y": 4597438.2395000001, "OBJECTID": 2597, "Owner": "Other", "Path": "15X", "Source": "CEC", "Type": "SUBSTATION", "HIFLD_ID": 307186, "Name": "High Winds", "Max_Voltage": 500, "ZIP_CODE": 94571, "STATE": "CA", "COUNTY": "Solano County", "CITY": "Unincorporated", "Lon": -121.830777061679, "Lat": 38.127395857078902 }, "geometry": { "type": "Point", "coordinates": [ -121.830777061679001, 38.127395857078902 ] } },
{ "type": "Feature", "properties": { "X": -13551288.691099999, "Y": 4543111.838, "OBJECTID": 2607, "Owner": "PG&E", "Path": null, "Source": "CEC", "Type": "SUBSTATION", "HIFLD_ID": 309619, "Name": "Unknown", "Max_Voltage": 230, "ZIP_CODE": 94551, "STATE": "CA", "COUNTY": "Alameda County", "CITY": "Unincorporated", "Lon": -121.73329750752799, "Lat": 37.742489677201903 }, "geometry": { "type": "Point", "coordinates": [ -121.733297507527993, 37.742489677201903 ] } },
{ "type": "Feature", "properties": { "X": -13244519.816, "Y": 4165806.291, "OBJECTID": 2645, "Owner": "Other", "Path": null, "Source": "CEC", "Type": "SUBSTATION", "HIFLD_ID": 308232, "Name": "Wind Gap", "Max_Voltage": 230, "ZIP_CODE": 93313, "STATE": "CA", "COUNTY": "Kern County", "CITY": "Unincorporated", "Lon": -118.977545815149, "Lat": 35.014165098101401 }, "geometry": { "type": "Point", "coordinates": [ -118.977545815149, 35.014165098101401 ] } },
{ "type": "Feature", "properties": { "X": -13155324.9945, "Y": 4197490.8701, "OBJECTID": 2647, "Owner": "LADWP", "Path": null, "Source": "CEC", "Type": "SUBSTATION", "HIFLD_ID": 308955, "Name": "Pine Tree Wind Farm", "Max_Voltage": 230, "ZIP_CODE": 93518, "STATE": "CA", "COUNTY": "Kern County", "CITY": "Unincorporated", "Lon": -118.176295101365, "Lat": 35.246945308066401 }, "geometry": { "type": "Point", "coordinates": [ -118.176295101365, 35.246945308066401 ] } },
{ "type": "Feature", "properties": { "X": -13014508.7574, "Y": 3838912.6564000002, "OBJECTID": 2705, "Owner": "SDG&E", "Path": null, "Source": "CEC", "Type": "SUBSTATION", "HIFLD_ID": 300185, "Name": "Otay Mesa", "Max_Voltage": 230, "ZIP_CODE": 92154, "STATE": "CA", "COUNTY": "San Diego County", "CITY": "Unincorporated", "Lon": -116.91132132101001, "Lat": 32.574132581264202 }, "geometry": { "type": "Point", "coordinates": [ -116.911321321010007, 32.574132581264202 ] } },
{ "type": "Feature", "properties": { "X": -13166890.670299999, "Y": 4050009.3561999998, "OBJECTID": 2754, "Owner": "LADWP", "Path": null, "Source": "CEC", "Type": "SUBSTATION", "HIFLD_ID": 308494, "Name": "Air Way (Glendale)", "Max_Voltage": 230, "ZIP_CODE": 91201, "STATE": "CA", "COUNTY": "Los Angeles County", "CITY": "Glendale", "Lon": -118.280191334929, "Lat": 34.157791921908903 }, "geometry": { "type": "Point", "coordinates": [ -118.280191334929, 34.157791921908903 ] } },
{ "type": "Feature", "properties": { "X": -13610348.8189, "Y": 4774131.0177999996, "OBJECTID": 2781, "Owner": "PG&E", "Path": null, "Source": "CEC", "Type": "SUBSTATION", "HIFLD_ID": 305625, "Name": "Arkansas", "Max_Voltage": 230, "ZIP_CODE": 95979, "STATE": "CA", "COUNTY": "Colusa County", "CITY": "Unincorporated", "Lon": -122.263843662376, "Lat": 39.365282311383602 }, "geometry": { "type": "Point", "coordinates": [ -122.263843662376004, 39.365282311383602 ] } },
{ "type": "Feature", "properties": { "X": -12853827.434900001, "Y": 3913112.5902, "OBJECTID": 2782, "Owner": "IID", "Path": null, "Source": "CEC", "Type": "SUBSTATION", "HIFLD_ID": 305625, "Name": "Arkansas", "Max_Voltage": 161, "ZIP_CODE": 92233, "STATE": "CA", "COUNTY": "Imperial County", "CITY": "Unincorporated", "Lon": -115.467896442252, "Lat": 33.134066432660497 }, "geometry": { "type": "Point", "coordinates": [ -115.467896442251998, 33.134066432660497 ] } },
{ "type": "Feature", "properties": { "X": -13645967.728399999, "Y": 4642172.5055999998, "OBJECTID": 2791, "Owner": "PG&E", "Path": "North Bay", "Source": "CEC", "Type": "SUBSTATION", "HIFLD_ID": 307357, "Name": "Oakmont North", "Max_Voltage": 230, "ZIP_CODE": 95409, "STATE": "CA", "COUNTY": "Sonoma County", "CITY": "Santa Rosa", "Lon": -122.58381376984001, "Lat": 38.442825785702098 }, "geometry": { "type": "Point", "coordinates": [ -122.583813769840006, 38.442825785702098 ] } },
{ "type": "Feature", "properties": { "X": -13647028.5702, "Y": 4640187.2616, "OBJECTID": 2792, "Owner": "PG&E", "Path": "North Bay", "Source": "CEC", "Type": "SUBSTATION", "HIFLD_ID": 309048, "Name": "Oakmont South", "Max_Voltage": 230, "ZIP_CODE": 95409, "STATE": "CA", "COUNTY": "Sonoma County", "CITY": "Santa Rosa", "Lon": -122.593343474097, "Lat": 38.428856524467797 }, "geometry": { "type": "Point", "coordinates": [ -122.593343474096997, 38.428856524467797 ] } },
{ "type": "Feature", "properties": { "X": -13604255.9487, "Y": 4598965.7455000002, "OBJECTID": 2793, "Owner": "PG&E", "Path": null, "Source": "CEC", "Type": "SUBSTATION", "HIFLD_ID": 301574, "Name": "Parkway", "Max_Voltage": 230, "ZIP_CODE": 94591, "STATE": "CA", "COUNTY": "Solano County", "CITY": "Vallejo", "Lon": -122.209110477713, "Lat": 38.138189189551902 }, "geometry": { "type": "Point", "coordinates": [ -122.209110477712997, 38.138189189551902 ] } },
{ "type": "Feature", "properties": { "X": -13577380.12, "Y": 4548692.4424000001, "OBJECTID": 2844, "Owner": "PG&E", "Path": null, "Source": "CEC", "Type": "SUBSTATION", "HIFLD_ID": 302072, "Name": "Technical Ecological Services", "Max_Voltage": 230, "ZIP_CODE": 94583, "STATE": "CA", "COUNTY": "Contra Costa County", "CITY": "Danville", "Lon": -121.96768080127499, "Lat": 37.7821214751947 }, "geometry": { "type": "Point", "coordinates": [ -121.967680801274994, 37.7821214751947 ] } },
{ "type": "Feature", "properties": { "X": -13578942.6161, "Y": 4509424.8306999998, "OBJECTID": 2849, "Owner": "PG&E", "Path": null, "Source": "CEC", "Type": "SUBSTATION", "HIFLD_ID": 309183, "Name": "Newark Distribution", "Max_Voltage": 230, "ZIP_CODE": 94538, "STATE": "CA", "COUNTY": "Alameda County", "CITY": "Fremont", "Lon": -121.981716942063, "Lat": 37.502803904290303 }, "geometry": { "type": "Point", "coordinates": [ -121.981716942063002, 37.502803904290303 ] } },
{ "type": "Feature", "properties": { "X": -13470862.395099999, "Y": 4444888.3898, "OBJECTID": 2860, "Owner": "PG&E", "Path": null, "Source": "CEC", "Type": "SUBSTATION", "HIFLD_ID": 309344, "Name": "Pacheco Wind Power", "Max_Voltage": 230, "ZIP_CODE": 95322, "STATE": "CA", "COUNTY": "Merced County", "CITY": "Unincorporated", "Lon": -121.010815798134, "Lat": 37.041467432653398 }, "geometry": { "type": "Point", "coordinates": [ -121.010815798134004, 37.041467432653398 ] } },
{ "type": "Feature", "properties": { "X": -13558368.1535, "Y": 4996171.561, "OBJECTID": 2901, "Owner": "PG&E", "Path": null, "Source": "CEC", "Type": "SUBSTATION", "HIFLD_ID": 309110, "Name": "Hatchet Ridge Wind", "Max_Voltage": 230, "ZIP_CODE": 96065, "STATE": "CA", "COUNTY": "Shasta County", "CITY": "Unincorporated", "Lon": -121.796893400382, "Lat": 40.890280860278999 }, "geometry": { "type": "Point", "coordinates": [ -121.796893400382004, 40.890280860278999 ] } },
{ "type": "Feature", "properties": { "X": -13095889.2863, "Y": 3984176.3467000001, "OBJECTID": 2913, "Owner": "SCE", "Path": "43", "Source": "CEC", "Type": "SUBSTATION", "HIFLD_ID": 300016, "Name": "Viejo", "Max_Voltage": 230, "ZIP_CODE": 92610, "STATE": "CA", "COUNTY": "Orange County", "CITY": "Lake Forest", "Lon": -117.64237505031301, "Lat": 33.667006877537901 }, "geometry": { "type": "Point", "coordinates": [ -117.642375050313007, 33.667006877537901 ] } },
{ "type": "Feature", "properties": { "X": -12851956.931500001, "Y": 4003270.2657, "OBJECTID": 2935, "Owner": "Other", "Path": null, "Source": "CEC", "Type": "SUBSTATION", "HIFLD_ID": 300795, "Name": "Unknown", "Max_Voltage": 230, "ZIP_CODE": 92239, "STATE": "CA", "COUNTY": "Riverside County", "CITY": "Unincorporated", "Lon": -115.45109342369101, "Lat": 33.809642877841704 }, "geometry": { "type": "Point", "coordinates": [ -115.451093423691006, 33.809642877841704 ] } },
{ "type": "Feature", "properties": { "X": -13570720.226199999, "Y": 4551203.1694, "OBJECTID": 2936, "Owner": "PG&E", "Path": "East Bay", "Source": "CEC", "Type": "SUBSTATION", "HIFLD_ID": 309217, "Name": "Tassajara", "Max_Voltage": 230, "ZIP_CODE": 94506, "STATE": "CA", "COUNTY": "Contra Costa County", "CITY": "Unincorporated", "Lon": -121.90785395711799, "Lat": 37.799944987879897 }, "geometry": { "type": "Point", "coordinates": [ -121.907853957117993, 37.799944987879897 ] } },
{ "type": "Feature", "properties": { "X": -13663849.087200001, "Y": 4691559.4837999996, "OBJECTID": 2937, "Owner": "PG&E", "Path": null, "Source": "CEC", "Type": "SUBSTATION", "HIFLD_ID": 309686, "Name": "Calistoga 19", "Max_Voltage": 230, "ZIP_CODE": 95461, "STATE": "CA", "COUNTY": "Lake County", "CITY": "Unincorporated", "Lon": -122.74444474956201, "Lat": 38.789468726275601 }, "geometry": { "type": "Point", "coordinates": [ -122.744444749562007, 38.789468726275601 ] } },
{ "type": "Feature", "properties": { "X": -13146411.4154, "Y": 3997010.4707999998, "OBJECTID": 2943, "Owner": "LADWP", "Path": null, "Source": "CEC", "Type": "SUBSTATION", "HIFLD_ID": 307373, "Name": "Haynes", "Max_Voltage": 230, "ZIP_CODE": 90803, "STATE": "CA", "COUNTY": "Los Angeles County", "CITY": "Long Beach", "Lon": -118.096223058166, "Lat": 33.762906892644203 }, "geometry": { "type": "Point", "coordinates": [ -118.096223058166004, 33.762906892644203 ] } },
{ "type": "Feature", "properties": { "X": -13665226.6942, "Y": 4691646.8534000004, "OBJECTID": 2944, "Owner": "PG&E", "Path": null, "Source": "CEC", "Type": "SUBSTATION", "HIFLD_ID": 310210, "Name": "Sonoma 3", "Max_Voltage": 230, "ZIP_CODE": 95441, "STATE": "CA", "COUNTY": "Sonoma County", "CITY": "Unincorporated", "Lon": -122.75682000346001, "Lat": 38.790080481135703 }, "geometry": { "type": "Point", "coordinates": [ -122.756820003460007, 38.790080481135703 ] } },
{ "type": "Feature", "properties": { "X": -13665049.255000001, "Y": 4690026.0538999997, "OBJECTID": 2946, "Owner": "PG&E", "Path": null, "Source": "CEC", "Type": "SUBSTATION", "HIFLD_ID": 310367, "Name": "Grant 20", "Max_Voltage": 230, "ZIP_CODE": 95441, "STATE": "CA", "COUNTY": "Sonoma County", "CITY": "Unincorporated", "Lon": -122.75522604017, "Lat": 38.7787309239176 }, "geometry": { "type": "Point", "coordinates": [ -122.755226040170001, 38.7787309239176 ] } },
{ "type": "Feature", "properties": { "X": -13667953.627, "Y": 4696476.7766000004, "OBJECTID": 2955, "Owner": "PG&E", "Path": null, "Source": "CEC", "Type": "SUBSTATION", "HIFLD_ID": 309734, "Name": "Lake View", "Max_Voltage": 230, "ZIP_CODE": 95441, "STATE": "CA", "COUNTY": "Sonoma County", "CITY": "Unincorporated", "Lon": -122.781316458154, "Lat": 38.823891032848202 }, "geometry": { "type": "Point", "coordinates": [ -122.781316458153995, 38.823891032848202 ] } },
{ "type": "Feature", "properties": { "X": -13666404.203299999, "Y": 4981739.7488000002, "OBJECTID": 2960, "Owner": "WAPA", "Path": null, "Source": "CEC", "Type": "SUBSTATION", "HIFLD_ID": 306872, "Name": "Trinity", "Max_Voltage": 230, "ZIP_CODE": 96052, "STATE": "CA", "COUNTY": "Trinity County", "CITY": "Unincorporated", "Lon": -122.767397747866, "Lat": 40.792202649404501 }, "geometry": { "type": "Point", "coordinates": [ -122.767397747865999, 40.792202649404501 ] } },
{ "type": "Feature", "properties": { "X": -13490787.0298, "Y": 4672561.7572999997, "OBJECTID": 2962, "Owner": "WAPA", "Path": null, "Source": "CEC", "Type": "SUBSTATION", "HIFLD_ID": 306029, "Name": "Sacramento Operations Ce", "Max_Voltage": 230, "ZIP_CODE": 95630, "STATE": "CA", "COUNTY": "Sacramento County", "CITY": "Folsom", "Lon": -121.18980183679101, "Lat": 38.656323597904297 }, "geometry": { "type": "Point", "coordinates": [ -121.189801836791005, 38.656323597904297 ] } },
{ "type": "Feature", "properties": { "X": -13166946.1578, "Y": 4168618.0693000001, "OBJECTID": 2974, "Owner": "SCE", "Path": null, "Source": "CEC", "Type": "SUBSTATION", "HIFLD_ID": 301750, "Name": "Windhub", "Max_Voltage": 500, "ZIP_CODE": 93501, "STATE": "CA", "COUNTY": "Kern County", "CITY": "Unincorporated", "Lon": -118.280689787223, "Lat": 35.034849560792701 }, "geometry": { "type": "Point", "coordinates": [ -118.280689787222997, 35.034849560792701 ] } },
{ "type": "Feature", "properties": { "X": -12766114.2926, "Y": 3976669.4959, "OBJECTID": 2979, "Owner": "SCE", "Path": null, "Source": "CEC", "Type": null, "HIFLD_ID": null, "Name": "Dunes", "Max_Voltage": 161, "ZIP_CODE": 92225, "STATE": "CA", "COUNTY": "Riverside County", "CITY": "Blythe", "Lon": -114.679955878491, "Lat": 33.610864054025697 }, "geometry": { "type": "Point", "coordinates": [ -114.679955878491, 33.610864054025697 ] } },
{ "type": "Feature", "properties": { "X": -13184148.0649, "Y": 4144773.9844, "OBJECTID": 3050, "Owner": "SCE", "Path": null, "Source": "CEC", "Type": "SUBSTATION", "HIFLD_ID": 306225, "Name": "Whirlwind", "Max_Voltage": 500, "ZIP_CODE": 93560, "STATE": "CA", "COUNTY": "Kern County", "CITY": "Unincorporated", "Lon": -118.43521714772901, "Lat": 34.859277941866601 }, "geometry": { "type": "Point", "coordinates": [ -118.435217147729006, 34.859277941866601 ] } },
{ "type": "Feature", "properties": { "X": -13072799.9311, "Y": 4049469.9323999998, "OBJECTID": 3052, "Owner": "SCE", "Path": null, "Source": "CEC", "Type": null, "HIFLD_ID": null, "Name": "Falcon Ridge", "Max_Voltage": 500, "ZIP_CODE": 92377, "STATE": "CA", "COUNTY": "San Bernardino County", "CITY": "Fontana", "Lon": -117.434959843125, "Lat": 34.153782014655 }, "geometry": { "type": "Point", "coordinates": [ -117.434959843125, 34.153782014655 ] } },
{ "type": "Feature", "properties": { "X": -12857422.296399999, "Y": 3927610.3412000001, "OBJECTID": 3064, "Owner": "IID", "Path": null, "Source": "CEC", "Type": null, "HIFLD_ID": null, "Name": "Niland Ss", "Max_Voltage": 161, "ZIP_CODE": 92233, "STATE": "CA", "COUNTY": "Imperial County", "CITY": "Unincorporated", "Lon": -115.500189632249, "Lat": 33.243057065466097 }, "geometry": { "type": "Point", "coordinates": [ -115.500189632249004, 33.243057065466097 ] } },
{ "type": "Feature", "properties": { "X": -13627828.4877, "Y": 4958630.3010999998, "OBJECTID": 3079, "Owner": "Other", "Path": "H13", "Source": "CEC", "Type": null, "HIFLD_ID": null, "Name": "Quartz Hill", "Max_Voltage": 230, "ZIP_CODE": 96003, "STATE": "CA", "COUNTY": "Shasta County", "CITY": "Unincorporated", "Lon": -122.420866198917, "Lat": 40.634849305148798 }, "geometry": { "type": "Point", "coordinates": [ -122.420866198916997, 40.634849305148798 ] } },
{ "type": "Feature", "properties": { "X": -13553458.172, "Y": 4991588.4825999998, "OBJECTID": 3092, "Owner": "PG&E", "Path": "H12", "Source": "CEC", "Type": "SUBSTATION", "HIFLD_ID": 300064, "Name": "Carberry", "Max_Voltage": 230, "ZIP_CODE": 96013, "STATE": "CA", "COUNTY": "Shasta County", "CITY": "Unincorporated", "Lon": -121.75278628603, "Lat": 40.859150108430597 }, "geometry": { "type": "Point", "coordinates": [ -121.752786286030002, 40.859150108430597 ] } },
{ "type": "Feature", "properties": { "X": -13358808.2323, "Y": 4816111.831, "OBJECTID": 3095, "Owner": "Other", "Path": null, "Source": "CEC", "Type": "SUBSTATION", "HIFLD_ID": 310047, "Name": "Bordertown", "Max_Voltage": 345, "ZIP_CODE": 96126, "STATE": "CA", "COUNTY": "Sierra County", "CITY": "Unincorporated", "Lon": -120.004216126632, "Lat": 39.656231643204997 }, "geometry": { "type": "Point", "coordinates": [ -120.004216126632002, 39.656231643204997 ] } },
{ "type": "Feature", "properties": { "X": -13492800.2652, "Y": 4657886.9473000001, "OBJECTID": 3113, "Owner": "SMUD", "Path": null, "Source": "CEC", "Type": "SUBSTATION", "HIFLD_ID": 301492, "Name": "Canyonlands", "Max_Voltage": 230, "ZIP_CODE": 95742, "STATE": "CA", "COUNTY": "Sacramento County", "CITY": "Rancho Cordova", "Lon": -121.207887037981, "Lat": 38.553305775489299 }, "geometry": { "type": "Point", "coordinates": [ -121.207887037980996, 38.553305775489299 ] } },
{ "type": "Feature", "properties": { "X": -13508673.4442, "Y": 4643623.439, "OBJECTID": 3135, "Owner": "SMUD", "Path": null, "Source": "CEC", "Type": "SUBSTATION", "HIFLD_ID": 303514, "Name": "Calvine-Kingbridge", "Max_Voltage": 230, "ZIP_CODE": 95829, "STATE": "CA", "COUNTY": "Sacramento County", "CITY": "Unincorporated", "Lon": -121.350478230685, "Lat": 38.453033635792799 }, "geometry": { "type": "Point", "coordinates": [ -121.350478230684999, 38.453033635792799 ] } },
{ "type": "Feature", "properties": { "X": -12989078.656, "Y": 3869993.077, "OBJECTID": 3140, "Owner": "SDG&E", "Path": "Southwest Powerlink", "Source": "CEC", "Type": "SUBSTATION", "HIFLD_ID": 307573, "Name": "Suncrest", "Max_Voltage": 500, "ZIP_CODE": 91901, "STATE": "CA", "COUNTY": "San Diego County", "CITY": "Unincorporated", "Lon": -116.68287883311601, "Lat": 32.809104295607497 }, "geometry": { "type": "Point", "coordinates": [ -116.682878833116007, 32.809104295607497 ] } },
{ "type": "Feature", "properties": { "X": -12781250.6041, "Y": 3972408.4745999998, "OBJECTID": 3167, "Owner": "SCE", "Path": "46", "Source": "CEC", "Type": "SUBSTATION", "HIFLD_ID": 303761, "Name": "Colorado River", "Max_Voltage": 500, "ZIP_CODE": 92239, "STATE": "CA", "COUNTY": "Riverside County", "CITY": "Unincorporated", "Lon": -114.815927678278, "Lat": 33.578980113208203 }, "geometry": { "type": "Point", "coordinates": [ -114.815927678278001, 33.578980113208203 ] } },
{ "type": "Feature", "properties": { "X": -12917832.248, "Y": 3861192.4223000002, "OBJECTID": 3178, "Owner": "SDG&E", "Path": "Southwest Powerlink", "Source": "CEC", "Type": "SUBSTATION", "HIFLD_ID": 301886, "Name": "Ocotillo Express", "Max_Voltage": 500, "ZIP_CODE": 92259, "STATE": "CA", "COUNTY": "Imperial County", "CITY": "Unincorporated", "Lon": -116.04286146096599, "Lat": 32.742633070660702 }, "geometry": { "type": "Point", "coordinates": [ -116.042861460965995, 32.742633070660702 ] } },
{ "type": "Feature", "properties": { "X": -13163296.229699999, "Y": 4192059.7218, "OBJECTID": 3193, "Owner": "SCE", "Path": null, "Source": "CEC", "Type": "SUBSTATION", "HIFLD_ID": 309958, "Name": "Unknown", "Max_Voltage": 230, "ZIP_CODE": 93561, "STATE": "CA", "COUNTY": "Kern County", "CITY": "Unincorporated", "Lon": -118.247901925725, "Lat": 35.207091027834103 }, "geometry": { "type": "Point", "coordinates": [ -118.247901925725003, 35.207091027834103 ] } },
{ "type": "Feature", "properties": { "X": -12763478.9979, "Y": 4026313.0951, "OBJECTID": 3196, "Owner": "WAPA", "Path": null, "Source": "CEC", "Type": null, "HIFLD_ID": null, "Name": "Rice Interconnection", "Max_Voltage": 161, "ZIP_CODE": 92239, "STATE": "CA", "COUNTY": "Riverside County", "CITY": "Unincorporated", "Lon": -114.656282623354, "Lat": 33.9814619840893 }, "geometry": { "type": "Point", "coordinates": [ -114.656282623354002, 33.9814619840893 ] } },
{ "type": "Feature", "properties": { "X": -13562255.575200001, "Y": 4597073.9020999996, "OBJECTID": 3197, "Owner": "Other", "Path": "15X", "Source": "CEC", "Type": "SUBSTATION", "HIFLD_ID": 309472, "Name": "Shiloh IV", "Max_Voltage": 230, "ZIP_CODE": 94571, "STATE": "CA", "COUNTY": "Solano County", "CITY": "Unincorporated", "Lon": -121.831814703779, "Lat": 38.124821218982397 }, "geometry": { "type": "Point", "coordinates": [ -121.831814703779003, 38.124821218982397 ] } },
{ "type": "Feature", "properties": { "X": -13089974.611199999, "Y": 3956104.5975000001, "OBJECTID": 3198, "Owner": "SDG&E", "Path": "43", "Source": "CEC", "Type": "SUBSTATION", "HIFLD_ID": 309122, "Name": "Pico", "Max_Voltage": 230, "ZIP_CODE": 92673, "STATE": "CA", "COUNTY": "Orange County", "CITY": "San Clemente", "Lon": -117.589242619453, "Lat": 33.456874354886402 }, "geometry": { "type": "Point", "coordinates": [ -117.589242619453003, 33.456874354886402 ] } },
{ "type": "Feature", "properties": { "X": -13563881.5416, "Y": 4603655.9523999998, "OBJECTID": 3208, "Owner": "PG&E", "Path": "15X", "Source": "CEC", "Type": "SUBSTATION", "HIFLD_ID": 300352, "Name": "Shiloh II", "Max_Voltage": 500, "ZIP_CODE": 94571, "STATE": "CA", "COUNTY": "Solano County", "CITY": "Unincorporated", "Lon": -121.846421008086, "Lat": 38.171320140980399 }, "geometry": { "type": "Point", "coordinates": [ -121.846421008085997, 38.171320140980399 ] } },
{ "type": "Feature", "properties": { "X": -13563936.656300001, "Y": 4603401.4338999996, "OBJECTID": 3209, "Owner": "PG&E", "Path": "15X", "Source": "CEC", "Type": null, "HIFLD_ID": null, "Name": "Shiloh III", "Max_Voltage": 230, "ZIP_CODE": 94571, "STATE": "CA", "COUNTY": "Solano County", "CITY": "Unincorporated", "Lon": -121.846916112212, "Lat": 38.169522644764903 }, "geometry": { "type": "Point", "coordinates": [ -121.846916112212, 38.169522644764903 ] } },
{ "type": "Feature", "properties": { "X": -12865548.5361, "Y": 3922534.3580999998, "OBJECTID": 3211, "Owner": "IID", "Path": null, "Source": "CEC", "Type": "SUBSTATION", "HIFLD_ID": 309851, "Name": "Bannister", "Max_Voltage": 230, "ZIP_CODE": 92257, "STATE": "CA", "COUNTY": "Imperial County", "CITY": "Unincorporated", "Lon": -115.57318888566201, "Lat": 33.204912465234599 }, "geometry": { "type": "Point", "coordinates": [ -115.573188885662006, 33.204912465234599 ] } },
{ "type": "Feature", "properties": { "X": -12853652.3223, "Y": 3906348.1313, "OBJECTID": 3224, "Owner": "IID", "Path": null, "Source": "CEC", "Type": "SUBSTATION", "HIFLD_ID": 309882, "Name": "Alhambra", "Max_Voltage": 161, "ZIP_CODE": 92233, "STATE": "CA", "COUNTY": "Imperial County", "CITY": "Unincorporated", "Lon": -115.466323378368, "Lat": 33.083166470057002 }, "geometry": { "type": "Point", "coordinates": [ -115.466323378368003, 33.083166470057002 ] } },
{ "type": "Feature", "properties": { "X": -12857546.3562, "Y": 3927640.1485000001, "OBJECTID": 3238, "Owner": "IID", "Path": null, "Source": "CEC", "Type": null, "HIFLD_ID": null, "Name": "Ninland Dist.", "Max_Voltage": 161, "ZIP_CODE": 92233, "STATE": "CA", "COUNTY": "Imperial County", "CITY": "Unincorporated", "Lon": -115.501304080284, "Lat": 33.243281010380002 }, "geometry": { "type": "Point", "coordinates": [ -115.501304080284001, 33.243281010380002 ] } },
{ "type": "Feature", "properties": { "X": -12857265.125499999, "Y": 3927606.4597999998, "OBJECTID": 3239, "Owner": "IID", "Path": null, "Source": "CEC", "Type": null, "HIFLD_ID": null, "Name": "Ninland Gen.", "Max_Voltage": 161, "ZIP_CODE": 92233, "STATE": "CA", "COUNTY": "Imperial County", "CITY": "Unincorporated", "Lon": -115.49877774214499, "Lat": 33.2430279048058 }, "geometry": { "type": "Point", "coordinates": [ -115.498777742144995, 33.2430279048058 ] } },
{ "type": "Feature", "properties": { "X": -12851675.091499999, "Y": 3917931.0144000002, "OBJECTID": 3242, "Owner": "IID", "Path": null, "Source": "CEC", "Type": "SUBSTATION", "HIFLD_ID": 306452, "Name": "Sonora", "Max_Voltage": 230, "ZIP_CODE": 92233, "STATE": "CA", "COUNTY": "Imperial County", "CITY": "Unincorporated", "Lon": -115.448561611979, "Lat": 33.1703052405203 }, "geometry": { "type": "Point", "coordinates": [ -115.448561611979002, 33.1703052405203 ] } },
{ "type": "Feature", "properties": { "X": -12769543.751700001, "Y": 3858175.4151, "OBJECTID": 3246, "Owner": "IID", "Path": null, "Source": "CEC", "Type": null, "HIFLD_ID": null, "Name": "Yucca Axis Plant", "Max_Voltage": 161, "ZIP_CODE": 85364, "STATE": "AZ", "COUNTY": null, "CITY": null, "Lon": -114.710763233973, "Lat": 32.7198342315574 }, "geometry": { "type": "Point", "coordinates": [ -114.710763233972997, 32.7198342315574 ] } },
{ "type": "Feature", "properties": { "X": -13495802.5516, "Y": 4684243.7260999996, "OBJECTID": 3249, "Owner": "Other", "Path": null, "Source": "CEC", "Type": "SUBSTATION", "HIFLD_ID": 301012, "Name": "South East", "Max_Voltage": 230, "ZIP_CODE": 95661, "STATE": "CA", "COUNTY": "Placer County", "CITY": "Roseville", "Lon": -121.23485703560399, "Lat": 38.738225780584798 }, "geometry": { "type": "Point", "coordinates": [ -121.234857035603994, 38.738225780584798 ] } },
{ "type": "Feature", "properties": { "X": -13167113.5371, "Y": 4167000.0514000002, "OBJECTID": 3293, "Owner": null, "Path": null, "Source": "HIFLD", "Type": "SUBSTATION", "HIFLD_ID": 300111, "Name": "Unknown", "Max_Voltage": 500, "ZIP_CODE": 93501, "STATE": "CA", "COUNTY": "Kern County", "CITY": "Unincorporated", "Lon": -118.28219338114, "Lat": 35.022947472856202 }, "geometry": { "type": "Point", "coordinates": [ -118.282193381140004, 35.022947472856202 ] } },
{ "type": "Feature", "properties": { "X": -13551383.606000001, "Y": 4410978.9914999995, "OBJECTID": 3403, "Owner": null, "Path": null, "Source": "HIFLD", "Type": "SUBSTATION", "HIFLD_ID": 302244, "Name": "Unknown", "Max_Voltage": 230, "ZIP_CODE": 95012, "STATE": "CA", "COUNTY": "Monterey County", "CITY": "Unincorporated", "Lon": -121.734150142365, "Lat": 36.797936139053498 }, "geometry": { "type": "Point", "coordinates": [ -121.734150142364996, 36.797936139053498 ] } },
{ "type": "Feature", "properties": { "X": -13664956.182499999, "Y": 4686535.6185, "OBJECTID": 3449, "Owner": null, "Path": null, "Source": "HIFLD", "Type": "TAP", "HIFLD_ID": 302502, "Name": "Geysers Tap 1", "Max_Voltage": 230, "ZIP_CODE": 95448, "STATE": "CA", "COUNTY": "Sonoma County", "CITY": "Unincorporated", "Lon": -122.754389955633, "Lat": 38.754283212176801 }, "geometry": { "type": "Point", "coordinates": [ -122.754389955633002, 38.754283212176801 ] } },
{ "type": "Feature", "properties": { "X": -13613120.924900001, "Y": 4493318.6475999998, "OBJECTID": 3462, "Owner": null, "Path": null, "Source": "HIFLD", "Type": "TAP", "HIFLD_ID": 302534, "Name": "S.L.A.C. Tap", "Max_Voltage": 230, "ZIP_CODE": 94062, "STATE": "CA", "COUNTY": "San Mateo County", "CITY": "Unincorporated", "Lon": -122.288745914049, "Lat": 37.387934240321698 }, "geometry": { "type": "Point", "coordinates": [ -122.288745914049002, 37.387934240321698 ] } },
{ "type": "Feature", "properties": { "X": -13589442.854599999, "Y": 4559087.0121999998, "OBJECTID": 3485, "Owner": null, "Path": null, "Source": "HIFLD", "Type": "TAP", "HIFLD_ID": 302585, "Name": "Rossmoor Tap 2", "Max_Voltage": 230, "ZIP_CODE": 94595, "STATE": "CA", "COUNTY": "Contra Costa County", "CITY": "Walnut Creek", "Lon": -122.07604218956, "Lat": 37.855884000740701 }, "geometry": { "type": "Point", "coordinates": [ -122.076042189559999, 37.855884000740701 ] } },
{ "type": "Feature", "properties": { "X": -13573572.3804, "Y": 4986543.1156000001, "OBJECTID": 3501, "Owner": null, "Path": null, "Source": "HIFLD", "Type": "TAP", "HIFLD_ID": 302629, "Name": "Pit 7 Tap", "Max_Voltage": 230, "ZIP_CODE": 96065, "STATE": "CA", "COUNTY": "Shasta County", "CITY": "Unincorporated", "Lon": -121.933475294159, "Lat": 40.824862314986497 }, "geometry": { "type": "Point", "coordinates": [ -121.933475294158995, 40.824862314986497 ] } },
{ "type": "Feature", "properties": { "X": -13494201.475099999, "Y": 4669906.294, "OBJECTID": 3608, "Owner": null, "Path": null, "Source": "HIFLD", "Type": "SUBSTATION", "HIFLD_ID": 303291, "Name": "Unknown", "Max_Voltage": 230, "ZIP_CODE": 95628, "STATE": "CA", "COUNTY": "Sacramento County", "CITY": "Unincorporated", "Lon": -121.22047432070499, "Lat": 38.637693086948502 }, "geometry": { "type": "Point", "coordinates": [ -121.220474320704994, 38.637693086948502 ] } },
{ "type": "Feature", "properties": { "X": -13246468.8346, "Y": 4167232.609, "OBJECTID": 3639, "Owner": null, "Path": null, "Source": "HIFLD", "Type": "SUBSTATION", "HIFLD_ID": 303962, "Name": "Unknown", "Max_Voltage": 230, "ZIP_CODE": 93313, "STATE": "CA", "COUNTY": "Kern County", "CITY": "Unincorporated", "Lon": -118.99505414734099, "Lat": 35.024658265822403 }, "geometry": { "type": "Point", "coordinates": [ -118.995054147340994, 35.024658265822403 ] } },
{ "type": "Feature", "properties": { "X": -13467971.6941, "Y": 4519465.8953999998, "OBJECTID": 3647, "Owner": null, "Path": null, "Source": "HIFLD", "Type": "SUBSTATION", "HIFLD_ID": 304066, "Name": "Unknown", "Max_Voltage": 230, "ZIP_CODE": 95358, "STATE": "CA", "COUNTY": "Stanislaus County", "CITY": "Ceres", "Lon": -120.98484818899099, "Lat": 37.5743277212188 }, "geometry": { "type": "Point", "coordinates": [ -120.984848188990995, 37.5743277212188 ] } },
{ "type": "Feature", "properties": { "X": -13365006.922700001, "Y": 4215950.1546, "OBJECTID": 3650, "Owner": null, "Path": null, "Source": "HIFLD", "Type": "SUBSTATION", "HIFLD_ID": 304105, "Name": "Solar", "Max_Voltage": 230, "ZIP_CODE": 93461, "STATE": "CA", "COUNTY": "San Luis Obispo County", "CITY": "Unincorporated", "Lon": -120.059899910246, "Lat": 35.382254859175298 }, "geometry": { "type": "Point", "coordinates": [ -120.059899910246003, 35.382254859175298 ] } },
{ "type": "Feature", "properties": { "X": -13501262.118899999, "Y": 4863967.2205999997, "OBJECTID": 3692, "Owner": null, "Path": null, "Source": "HIFLD", "Type": "SUBSTATION", "HIFLD_ID": 305065, "Name": "Bucks Creek", "Max_Voltage": 230, "ZIP_CODE": 95984, "STATE": "CA", "COUNTY": "Plumas County", "CITY": "Unincorporated", "Lon": -121.283901163118, "Lat": 39.986407290769101 }, "geometry": { "type": "Point", "coordinates": [ -121.283901163118003, 39.986407290769101 ] } },
{ "type": "Feature", "properties": { "X": -13666210.9406, "Y": 4690015.0218000002, "OBJECTID": 3695, "Owner": null, "Path": null, "Source": "HIFLD", "Type": "TAP", "HIFLD_ID": 305112, "Name": "Geysers Tap 6", "Max_Voltage": 230, "ZIP_CODE": 95441, "STATE": "CA", "COUNTY": "Sonoma County", "CITY": "Unincorporated", "Lon": -122.765661639424, "Lat": 38.778653666016901 }, "geometry": { "type": "Point", "coordinates": [ -122.765661639423996, 38.778653666016901 ] } },
{ "type": "Feature", "properties": { "X": -13585736.285499999, "Y": 4536189.7707000002, "OBJECTID": 3702, "Owner": null, "Path": null, "Source": "HIFLD", "Type": "TAP", "HIFLD_ID": 305127, "Name": "Castro Valley Tap", "Max_Voltage": 230, "ZIP_CODE": 94552, "STATE": "CA", "COUNTY": "Alameda County", "CITY": "Unincorporated", "Lon": -122.042745512818, "Lat": 37.693301706945697 }, "geometry": { "type": "Point", "coordinates": [ -122.042745512818001, 37.693301706945697 ] } },
{ "type": "Feature", "properties": { "X": -13664735.0439, "Y": 4689898.8773999996, "OBJECTID": 3711, "Owner": null, "Path": null, "Source": "HIFLD", "Type": "TAP", "HIFLD_ID": 305143, "Name": "Geysers Tap  9", "Max_Voltage": 230, "ZIP_CODE": 95441, "STATE": "CA", "COUNTY": "Sonoma County", "CITY": "Unincorporated", "Lon": -122.75240343378999, "Lat": 38.777840301136898 }, "geometry": { "type": "Point", "coordinates": [ -122.752403433789993, 38.777840301136898 ] } },
{ "type": "Feature", "properties": { "X": -13661609.081599999, "Y": 4686804.6156000001, "OBJECTID": 3738, "Owner": null, "Path": null, "Source": "HIFLD", "Type": "TAP", "HIFLD_ID": 305190, "Name": "Geysers Tap 3", "Max_Voltage": 230, "ZIP_CODE": 95461, "STATE": "CA", "COUNTY": "Sonoma County", "CITY": "Unincorporated", "Lon": -122.72432243667301, "Lat": 38.756167619896303 }, "geometry": { "type": "Point", "coordinates": [ -122.724322436673006, 38.756167619896303 ] } },
{ "type": "Feature", "properties": { "X": -13664967.4583, "Y": 4686541.782, "OBJECTID": 3764, "Owner": null, "Path": null, "Source": "HIFLD", "Type": "TAP", "HIFLD_ID": 305242, "Name": "Unknown", "Max_Voltage": 230, "ZIP_CODE": 95448, "STATE": "CA", "COUNTY": "Sonoma County", "CITY": "Unincorporated", "Lon": -122.754491247868, "Lat": 38.754326389953803 }, "geometry": { "type": "Point", "coordinates": [ -122.754491247868003, 38.754326389953803 ] } },
{ "type": "Feature", "properties": { "X": -13589442.055299999, "Y": 4559073.8508000001, "OBJECTID": 3810, "Owner": null, "Path": null, "Source": "HIFLD", "Type": "TAP", "HIFLD_ID": 305379, "Name": "Rossmoor Tap 1", "Max_Voltage": 230, "ZIP_CODE": 94595, "STATE": "CA", "COUNTY": "Contra Costa County", "CITY": "Walnut Creek", "Lon": -122.07603500932601, "Lat": 37.8557906506922 }, "geometry": { "type": "Point", "coordinates": [ -122.076035009326006, 37.8557906506922 ] } },
{ "type": "Feature", "properties": { "X": -13349090.087099999, "Y": 4332802.6083000004, "OBJECTID": 3859, "Owner": null, "Path": null, "Source": "HIFLD", "Type": "SUBSTATION", "HIFLD_ID": 305521, "Name": "Unknown", "Max_Voltage": 230, "ZIP_CODE": 93245, "STATE": "CA", "COUNTY": "Kings County", "CITY": "Unincorporated", "Lon": -119.916916543303, "Lat": 36.233530774089701 }, "geometry": { "type": "Point", "coordinates": [ -119.916916543303003, 36.233530774089701 ] } },
{ "type": "Feature", "properties": { "X": -13465706.558800001, "Y": 4440955.3936000001, "OBJECTID": 3886, "Owner": null, "Path": null, "Source": "HIFLD", "Type": "NOT AVAILABLE", "HIFLD_ID": 306054, "Name": "Unknown", "Max_Voltage": 230, "ZIP_CODE": 93635, "STATE": "CA", "COUNTY": "Merced County", "CITY": "Unincorporated", "Lon": -120.964500132385, "Lat": 37.0132612348458 }, "geometry": { "type": "Point", "coordinates": [ -120.964500132384998, 37.0132612348458 ] } },
{ "type": "Feature", "properties": { "X": -13173221.070800001, "Y": 4045424.8542999998, "OBJECTID": 3919, "Owner": null, "Path": null, "Source": "HIFLD", "Type": "SUBSTATION", "HIFLD_ID": 306768, "Name": "Unknown", "Max_Voltage": 230, "ZIP_CODE": 90068, "STATE": "CA", "COUNTY": "Los Angeles County", "CITY": "Los Angeles", "Lon": -118.33705828985001, "Lat": 34.1237061106631 }, "geometry": { "type": "Point", "coordinates": [ -118.337058289850006, 34.1237061106631 ] } },
{ "type": "Feature", "properties": { "X": -13556203.981699999, "Y": 4596445.1541999998, "OBJECTID": 3927, "Owner": null, "Path": null, "Source": "HIFLD", "Type": "SUBSTATION", "HIFLD_ID": 306918, "Name": "Unknown", "Max_Voltage": 230, "ZIP_CODE": 94571, "STATE": "CA", "COUNTY": "Solano County", "CITY": "Unincorporated", "Lon": -121.77745231403, "Lat": 38.1203778759551 }, "geometry": { "type": "Point", "coordinates": [ -121.77745231403, 38.1203778759551 ] } },
{ "type": "Feature", "properties": { "X": -13168249.6395, "Y": 4169126.0786000001, "OBJECTID": 3930, "Owner": null, "Path": null, "Source": "HIFLD", "Type": "SUBSTATION", "HIFLD_ID": 306965, "Name": "Unknown", "Max_Voltage": 220, "ZIP_CODE": 93501, "STATE": "CA", "COUNTY": "Kern County", "CITY": "Unincorporated", "Lon": -118.292399162642, "Lat": 35.0385861039384 }, "geometry": { "type": "Point", "coordinates": [ -118.292399162641999, 35.0385861039384 ] } },
{ "type": "Feature", "properties": { "X": -13346885.0101, "Y": 4398147.0899, "OBJECTID": 4030, "Owner": null, "Path": null, "Source": "HIFLD", "Type": "TAP", "HIFLD_ID": 307972, "Name": "Unknown", "Max_Voltage": 230, "ZIP_CODE": 93706, "STATE": "CA", "COUNTY": "Fresno County", "CITY": "Fresno", "Lon": -119.897107999586, "Lat": 36.705576999897403 }, "geometry": { "type": "Point", "coordinates": [ -119.897107999585998, 36.705576999897403 ] } },
{ "type": "Feature", "properties": { "X": -13432791.7685, "Y": 4626383.1080999998, "OBJECTID": 4067, "Owner": null, "Path": null, "Source": "HIFLD", "Type": "TAP", "HIFLD_ID": 308056, "Name": "Electra Tap 2", "Max_Voltage": 230, "ZIP_CODE": 95665, "STATE": "CA", "COUNTY": "Amador County", "CITY": "Unincorporated", "Lon": -120.668821540384, "Lat": 38.331648242343803 }, "geometry": { "type": "Point", "coordinates": [ -120.668821540384002, 38.331648242343803 ] } },
{ "type": "Feature", "properties": { "X": -13432823.5535, "Y": 4626364.1552999998, "OBJECTID": 4076, "Owner": null, "Path": null, "Source": "HIFLD", "Type": "TAP", "HIFLD_ID": 308085, "Name": "Electra Tap 1", "Max_Voltage": 230, "ZIP_CODE": 95642, "STATE": "CA", "COUNTY": "Amador County", "CITY": "Unincorporated", "Lon": -120.669107069898, "Lat": 38.331514687720698 }, "geometry": { "type": "Point", "coordinates": [ -120.669107069898004, 38.331514687720698 ] } },
{ "type": "Feature", "properties": { "X": -13665751.36, "Y": 4688373.6028000005, "OBJECTID": 4108, "Owner": null, "Path": null, "Source": "HIFLD", "Type": "TAP", "HIFLD_ID": 308149, "Name": "Geysers Tap 2", "Max_Voltage": 230, "ZIP_CODE": 95441, "STATE": "CA", "COUNTY": "Sonoma County", "CITY": "Unincorporated", "Lon": -122.761533156651, "Lat": 38.767157868147997 }, "geometry": { "type": "Point", "coordinates": [ -122.761533156650998, 38.767157868147997 ] } },
{ "type": "Feature", "properties": { "X": -13562170.474400001, "Y": 4597545.0288000004, "OBJECTID": 4119, "Owner": null, "Path": null, "Source": "HIFLD", "Type": "SUBSTATION", "HIFLD_ID": 308227, "Name": "Unknown", "Max_Voltage": 500, "ZIP_CODE": 94571, "STATE": "CA", "COUNTY": "Solano County", "CITY": "Unincorporated", "Lon": -121.83105022988001, "Lat": 38.128150480292298 }, "geometry": { "type": "Point", "coordinates": [ -121.831050229880006, 38.128150480292298 ] } },
{ "type": "Feature", "properties": { "X": -12881596.3048, "Y": 3860121.4564, "OBJECTID": 4150, "Owner": null, "Path": null, "Source": "HIFLD", "Type": "SUBSTATION", "HIFLD_ID": 308676, "Name": "Unknown", "Max_Voltage": 230, "ZIP_CODE": 92243, "STATE": "CA", "COUNTY": "Imperial County", "CITY": "Unincorporated", "Lon": -115.71734844459399, "Lat": 32.734540692167897 }, "geometry": { "type": "Point", "coordinates": [ -115.717348444593995, 32.734540692167897 ] } },
{ "type": "Feature", "properties": { "X": -13349354.4212, "Y": 4332623.9274000004, "OBJECTID": 4177, "Owner": null, "Path": null, "Source": "HIFLD", "Type": "SUBSTATION", "HIFLD_ID": 309129, "Name": "Unknown", "Max_Voltage": 230, "ZIP_CODE": 93245, "STATE": "CA", "COUNTY": "Kings County", "CITY": "Unincorporated", "Lon": -119.91929109692499, "Lat": 36.232236051989297 }, "geometry": { "type": "Point", "coordinates": [ -119.919291096924994, 36.232236051989297 ] } },
{ "type": "Feature", "properties": { "X": -13168802.697000001, "Y": 4166777.5739000002, "OBJECTID": 4186, "Owner": null, "Path": null, "Source": "HIFLD", "Type": "SUBSTATION", "HIFLD_ID": 309264, "Name": "Unknown", "Max_Voltage": 500, "ZIP_CODE": 93501, "STATE": "CA", "COUNTY": "Kern County", "CITY": "Unincorporated", "Lon": -118.297367362695, "Lat": 35.021310799902302 }, "geometry": { "type": "Point", "coordinates": [ -118.297367362694999, 35.021310799902302 ] } },
{ "type": "Feature", "properties": { "X": -13623949.4187, "Y": 4544849.7736999998, "OBJECTID": 4215, "Owner": null, "Path": null, "Source": "HIFLD", "Type": "SUBSTATION", "HIFLD_ID": 309801, "Name": "Trans Bay Cable Facility", "Max_Voltage": 200, "ZIP_CODE": 94107, "STATE": "CA", "COUNTY": "San Francisco County", "CITY": "San Francisco", "Lon": -122.386019928895, "Lat": 37.754834257972902 }, "geometry": { "type": "Point", "coordinates": [ -122.386019928894996, 37.754834257972902 ] } },
{ "type": "Feature", "properties": { "X": -13459316.4593, "Y": 4507673.5787000004, "OBJECTID": 4227, "Owner": null, "Path": null, "Source": "HIFLD", "Type": "SUBSTATION", "HIFLD_ID": 310029, "Name": "Walnut", "Max_Voltage": 230, "ZIP_CODE": 95380, "STATE": "CA", "COUNTY": "Stanislaus County", "CITY": "Unincorporated", "Lon": -120.90709689190599, "Lat": 37.490322482038898 }, "geometry": { "type": "Point", "coordinates": [ -120.907096891905994, 37.490322482038898 ] } },
{ "type": "Feature", "properties": { "X": -13598614.0011, "Y": 4607600.7539, "OBJECTID": 4233, "Owner": null, "Path": null, "Source": "HIFLD", "Type": "DEAD END", "HIFLD_ID": 310155, "Name": "Unknown", "Max_Voltage": 230, "ZIP_CODE": 94534, "STATE": "CA", "COUNTY": "Solano County", "CITY": "Fairfield", "Lon": -122.158428000298, "Lat": 38.199174000016797 }, "geometry": { "type": "Point", "coordinates": [ -122.158428000298002, 38.199174000016797 ] } },
{ "type": "Feature", "properties": { "X": -12731872.115800001, "Y": 4046401.5954, "OBJECTID": 4239, "Owner": null, "Path": null, "Source": "HIFLD", "Type": "SUBSTATION", "HIFLD_ID": 310357, "Name": "Unknown", "Max_Voltage": 161, "ZIP_CODE": 92242, "STATE": "CA", "COUNTY": "San Bernardino County", "CITY": "Unincorporated", "Lon": -114.372353170783, "Lat": 34.130969341795797 }, "geometry": { "type": "Point", "coordinates": [ -114.372353170783001, 34.130969341795797 ] } },
{ "type": "Feature", "properties": { "X": -13177952.7323, "Y": 4054508.8215000001, "OBJECTID": 4243, "Owner": null, "Path": null, "Source": "HIFLD", "Type": "SUBSTATION", "HIFLD_ID": 310442, "Name": "Unknown", "Max_Voltage": 500, "ZIP_CODE": 91606, "STATE": "CA", "COUNTY": "Los Angeles County", "CITY": "Los Angeles", "Lon": -118.379563528297, "Lat": 34.191232111852003 }, "geometry": { "type": "Point", "coordinates": [ -118.379563528296998, 34.191232111852003 ] } },
{ "type": "Feature", "properties": { "X": -13573169.7524, "Y": 5001180.6311999997, "OBJECTID": 4269, "Owner": null, "Path": null, "Source": "HIFLD", "Type": "TAP", "HIFLD_ID": 310576, "Name": "James Black Tap", "Max_Voltage": 230, "ZIP_CODE": 96065, "STATE": "CA", "COUNTY": "Shasta County", "CITY": "Unincorporated", "Lon": -121.929858425297, "Lat": 40.924288435674399 }, "geometry": { "type": "Point", "coordinates": [ -121.929858425296999, 40.924288435674399 ] } },
{ "type": "Feature", "properties": { "X": -13666380.2437, "Y": 4690439.0318, "OBJECTID": 4293, "Owner": null, "Path": null, "Source": "HIFLD", "Type": "TAP", "HIFLD_ID": 310622, "Name": "Geysers Tap 7", "Max_Voltage": 230, "ZIP_CODE": 95441, "STATE": "CA", "COUNTY": "Sonoma County", "CITY": "Unincorporated", "Lon": -122.76718251504801, "Lat": 38.781622949912098 }, "geometry": { "type": "Point", "coordinates": [ -122.767182515048006, 38.781622949912098 ] } },
{ "type": "Feature", "properties": { "X": -13666410.9199, "Y": 4691177.4146999996, "OBJECTID": 4369, "Owner": null, "Path": null, "Source": "HIFLD", "Type": "TAP", "HIFLD_ID": 310807, "Name": "Geysers Tap  8", "Max_Voltage": 230, "ZIP_CODE": 95441, "STATE": "CA", "COUNTY": "Sonoma County", "CITY": "Unincorporated", "Lon": -122.767458084041, "Lat": 38.786793449002502 }, "geometry": { "type": "Point", "coordinates": [ -122.767458084040996, 38.786793449002502 ] } },
{ "type": "Feature", "properties": { "X": -13573243.142000001, "Y": 5001193.5444999998, "OBJECTID": 4394, "Owner": null, "Path": null, "Source": "HIFLD", "Type": "TAP", "HIFLD_ID": 310853, "Name": "Pit 5 Tap", "Max_Voltage": 230, "ZIP_CODE": 96065, "STATE": "CA", "COUNTY": "Shasta County", "CITY": "Unincorporated", "Lon": -121.930517695291, "Lat": 40.924376084037299 }, "geometry": { "type": "Point", "coordinates": [ -121.930517695291002, 40.924376084037299 ] } }
]
}
